$GPGGA,062259.00,3510.5492,N,13653.1877,E,2,04,7.1,-8.4,M,35.5,M,,*43
$GNGLL,3510.5492,N,13653.1877,E,062259.00,A,D*7E
$GNGSA,A,3,21,194,195,02,,,,,,,,,7.1,7.1,1.0*2D
$GPGSV,3,1,12,02,77,231,38,03,10,169,07,07,40,251,00,08,55,042,*71
$GPGSV,3,2,12,10,15,048,28,14,19,313,20,16,14,126,03,17,06,270,07*70
$GPGSV,3,3,12,21,83,033,32,22,01,311,,27,23,071,31,30,31,290,19*73
$GQGSV,2,1,05,02,80,136,36,03,80,175,25,04,14,176,00,07,48,196,26*7A
$GQGSV,2,2,05,56,,,39,,,,,,,,,,,,*74
$GNRMC,062259.00,A,3510.5492,N,13653.1877,E,0.8,350.3,270224,7.9,W,D*32
$GNVTG,350.3,T,358.3,M,0.8,N,1.5,K,D*3C
$GNZDA,062259.00,27,02,2024,,*71
$L1BAT,4.082*26
$L1MAG,0.00,0.00,480,480*36
$GPGGA,062300.00,3510.5492,N,13653.1877,E,2,04,7.1,-8.6,M,35.5,M,,*4C
$GNGLL,3510.5492,N,13653.1877,E,062300.00,A,D*73
$GNGSA,A,3,21,194,195,02,,,,,,,,,7.1,7.1,1.0*2D
$GPGSV,3,1,12,02,77,231,37,03,10,169,00,07,40,251,00,08,55,042,*79
$GPGSV,3,2,12,10,15,048,28,14,19,313,22,16,14,126,00,17,06,270,00*76
$GPGSV,3,3,12,21,83,033,33,22,01,311,,27,23,071,32,30,31,290,20*7B
$GQGSV,2,1,05,02,80,136,35,03,80,175,25,04,14,176,00,07,48,196,26*79
$GQGSV,2,2,05,56,,,36,,,,,,,,,,,,*7B
$GNRMC,062300.00,A,3510.5492,N,13653.1877,E,1.1,13.3,270224,7.9,W,D*03
$GNVTG,13.3,T,21.2,M,1.1,N,2.1,K,D*3B
$GNZDA,062300.00,27,02,2024,,*7C
$L1BAT,4.082*26
$L1MAG,0.00,0.00,494,494*36
$GPGGA,062301.00,3510.5492,N,13653.1877,E,2,04,7.1,-8.7,M,35.5,M,,*4C
$GNGLL,3510.5492,N,13653.1877,E,062301.00,A,D*72
$GNGSA,A,3,21,194,195,02,,,,,,,,,7.1,7.1,1.0*2D
$GPGSV,3,1,12,02,77,231,37,03,10,169,08,07,40,251,10,08,55,042,*70
$GPGSV,3,2,12,10,15,048,29,14,19,313,22,16,14,126,03,17,06,270,11*74
$GPGSV,3,3,12,21,83,033,34,22,01,311,,27,23,071,34,30,31,290,20*7A
$GQGSV,2,1,05,02,80,136,36,03,80,175,26,04,14,176,00,07,48,196,23*7C
$GQGSV,2,2,05,56,,,38,,,,,,,,,,,,*75
$GNRMC,062301.00,A,3510.5492,N,13653.1877,E,1.1,359.1,270224,7.9,W,D*3D
$GNVTG,359.1,T,367.1,M,1.1,N,2.1,K,D*36
$GNZDA,062301.00,27,02,2024,,*7D
$L1BAT,4.082*26
$L1MAG,0.00,0.00,547,547*36
$GPGGA,062302.00,3510.5492,N,13653.1877,E,2,04,7.1,-8.8,M,35.5,M,,*40
$GNGLL,3510.5492,N,13653.1877,E,062302.00,A,D*71
$GNGSA,A,3,21,194,195,02,,,,,,,,,7.1,7.1,1.0*2D
$GPGSV,3,1,12,02,77,231,38,03,10,169,11,07,40,251,06,08,55,042,*70
$GPGSV,3,2,12,10,15,048,32,14,19,313,25,16,14,126,00,17,06,270,08*72
$GPGSV,3,3,12,21,83,033,33,22,01,311,,27,23,071,33,30,31,290,18*71
$GQGSV,2,1,05,02,80,136,36,03,80,175,26,04,14,176,00,07,48,196,22*7D
$GQGSV,2,2,05,56,,,37,,,,,,,,,,,,*7A
$GNRMC,062302.00,A,3510.5492,N,13653.1877,E,1.1,24.9,270224,7.9,W,D*0F
$GNVTG,24.9,T,32.8,M,1.1,N,2.1,K,D*3D
$GNZDA,062302.00,27,02,2024,,*7E
$L1BAT,4.082*26
$L1MAG,0.00,0.00,547,547*36
$GPGGA,062303.00,3510.5492,N,13653.1877,E,2,04,7.1,-8.9,M,35.5,M,,*40
$GNGLL,3510.5492,N,13653.1877,E,062303.00,A,D*70
$GNGSA,A,3,21,194,195,02,,,,,,,,,7.1,7.1,1.0*2D
$GPGSV,3,1,12,02,77,231,39,03,10,169,00,07,40,251,00,08,55,042,*77
$GPGSV,3,2,12,10,15,048,32,14,19,313,22,16,14,126,00,17,06,270,03*7E
$GPGSV,3,3,12,21,83,033,33,22,01,311,,27,23,071,35,30,31,290,20*7C
$GQGSV,2,1,05,02,80,136,36,03,80,175,26,04,14,176,00,07,48,196,23*7C
$GQGSV,2,2,05,56,,,38,,,,,,,,,,,,*75
$GNRMC,062303.00,A,3510.5492,N,13653.1877,E,1.1,24.9,270224,7.9,W,D*0E
$GNVTG,24.9,T,32.8,M,1.1,N,2.1,K,D*3D
$GNZDA,062303.00,27,02,2024,,*7F
$L1BAT,4.082*26
$L1MAG,0.00,0.00,541,541*36
$GPGGA,062304.00,3510.5492,N,13653.1877,E,2,04,7.1,-9.0,M,35.5,M,,*4F
$GNGLL,3510.5492,N,13653.1877,E,062304.00,A,D*77
$GNGSA,A,3,21,194,195,02,,,,,,,,,7.1,7.1,1.0*2D
$GPGSV,3,1,12,02,77,231,38,03,10,169,00,07,40,251,08,08,55,042,*7E
$GPGSV,3,2,12,10,15,048,31,14,19,313,23,16,14,126,10,17,06,270,00*7E
$GPGSV,3,3,12,21,83,033,33,22,01,311,,27,23,071,34,30,31,290,21*7C
$GQGSV,2,1,05,02,80,136,36,03,80,175,28,04,14,176,00,07,48,196,25*74
$GQGSV,2,2,05,56,,,36,,,,,,,,,,,,*7B
$GNRMC,062304.00,A,3510.5492,N,13653.1877,E,1.1,24.9,270224,7.9,W,D*09
$GNVTG,24.9,T,32.8,M,1.1,N,2.1,K,D*3D
$GNZDA,062304.00,27,02,2024,,*78
$L1BAT,4.082*26
$L1MAG,0.00,0.00,492,492*36
$GPGGA,062305.00,3510.5492,N,13653.1877,E,2,04,7.1,-9.1,M,35.5,M,,*4F
$GNGLL,3510.5492,N,13653.1877,E,062305.00,A,D*76
$GNGSA,A,3,21,194,195,02,,,,,,,,,7.1,7.1,1.0*2D
$GPGSV,3,1,12,02,77,231,40,03,10,169,12,07,40,251,00,08,55,042,*7A
$GPGSV,3,2,12,10,15,048,27,14,19,313,20,16,14,126,06,17,06,270,00*7D
$GPGSV,3,3,12,21,83,033,33,22,01,311,,27,23,071,33,30,31,290,22*78
$GQGSV,2,1,05,02,80,136,36,03,80,175,27,04,14,176,00,07,48,196,24*7A
$GQGSV,2,2,05,56,,,38,,,,,,,,,,,,*75
$GNRMC,062305.00,A,3510.5492,N,13653.1877,E,1.1,354.0,270224,7.9,W,D*35
$GNVTG,354.0,T,361.9,M,1.1,N,2.1,K,D*34
$GNZDA,062305.00,27,02,2024,,*79
$L1BAT,4.082*26
$L1MAG,0.00,0.00,515,515*36
$GPGGA,062306.00,3510.5492,N,13653.1877,E,2,04,7.1,-9.1,M,35.5,M,,*4C
$GNGLL,3510.5492,N,13653.1877,E,062306.00,A,D*75
$GNGSA,A,3,21,194,195,02,,,,,,,,,7.1,7.1,1.0*2D
$GPGSV,3,1,12,02,77,231,40,03,10,169,06,07,40,251,03,08,55,042,*7C
$GPGSV,3,2,12,10,15,048,27,14,19,313,22,16,14,126,00,17,06,270,12*7A
$GPGSV,3,3,12,21,83,033,31,22,01,311,,27,23,071,33,30,31,290,21*79
$GQGSV,2,1,05,02,80,136,37,03,80,175,25,04,14,176,03,07,48,196,23*7D
$GQGSV,2,2,05,56,,,39,,,,,,,,,,,,*74
$GNRMC,062306.00,A,3510.5492,N,13653.1877,E,1.1,354.0,270224,7.9,W,D*36
$GNVTG,354.0,T,361.9,M,1.1,N,2.1,K,D*34
$GNZDA,062306.00,27,02,2024,,*7A
$L1BAT,4.082*26
$L1MAG,0.00,0.00,586,586*36
$GPGGA,062307.00,3510.5492,N,13653.1877,E,2,04,7.1,-9.2,M,35.5,M,,*4E
$GNGLL,3510.5492,N,13653.1877,E,062307.00,A,D*74
$GNGSA,A,3,21,194,195,02,,,,,,,,,7.1,7.1,1.0*2D
$GPGSV,3,1,12,02,77,231,39,03,10,169,00,07,40,251,07,08,55,042,*70
$GPGSV,3,2,12,10,15,048,35,14,19,313,18,16,14,126,11,17,06,270,10*72
$GPGSV,3,3,12,21,83,033,35,22,01,311,,27,23,071,33,30,31,290,21*7D
$GQGSV,2,1,05,02,80,136,34,03,80,175,29,04,14,176,04,07,48,196,25*73
$GQGSV,2,2,05,56,,,36,,,,,,,,,,,,*7B
$GNRMC,062307.00,A,3510.5492,N,13653.1877,E,0.8,23.0,270224,7.9,W,D*0C
$GNVTG,23.0,T,31.0,M,0.8,N,1.6,K,D*34
$GNZDA,062307.00,27,02,2024,,*7B
$L1BAT,4.082*26
$L1MAG,0.00,0.00,583,583*36
$GPGGA,062308.01,3510.5492,N,13653.1877,E,2,04,7.1,-9.3,M,35.5,M,,*41
$GNGLL,3510.5492,N,13653.1877,E,062308.01,A,D*7A
$GNGSA,A,3,21,194,195,02,,,,,,,,,7.1,7.1,1.0*2D
$GPGSV,3,1,12,02,77,231,37,03,10,169,00,07,40,251,07,08,55,042,*7E
$GPGSV,3,2,12,10,15,048,39,14,19,313,21,16,14,126,13,17,06,270,00*77
$GPGSV,3,3,12,21,83,033,38,22,01,311,,27,23,071,39,30,31,290,23*78
$GQGSV,2,1,05,02,80,136,32,03,80,175,35,04,14,176,00,07,48,196,22*7B
$GQGSV,2,2,05,56,,,36,,,,,,,,,,,,*7B
$GNRMC,062308.01,A,3510.5492,N,13653.1877,E,1.1,342.9,270224,7.9,W,D*37
$GNVTG,342.9,T,350.9,M,1.1,N,2.1,K,D*38
$GNZDA,062308.01,27,02,2024,,*75
$L1BAT,4.082*26
$L1MAG,0.00,0.00,579,579*36
$GPGGA,062309.00,3510.5492,N,13653.1876,E,2,04,7.0,-9.3,M,35.5,M,,*41
$GNGLL,3510.5492,N,13653.1876,E,062309.00,A,D*7B
$GNGSA,A,3,21,194,195,02,,,,,,,,,7.1,7.0,1.0*2C
$GPGSV,3,1,12,02,77,231,37,03,10,169,00,07,40,251,00,08,55,042,*79
$GPGSV,3,2,12,10,15,048,37,14,19,313,20,16,14,126,00,17,06,270,00*7A
$GPGSV,3,3,12,21,83,033,37,22,01,311,,27,23,071,35,30,31,290,22*7A
$GQGSV,2,1,05,02,80,136,36,03,80,175,38,04,14,176,00,07,48,196,28*78
$GQGSV,2,2,05,56,,,40,,,,,,,,,,,,*7A
$GNRMC,062309.00,A,3510.5492,N,13653.1876,E,1.3,342.9,270224,7.9,W,D*34
$GNVTG,342.9,T,350.9,M,1.3,N,2.4,K,D*3F
$GNZDA,062309.00,27,02,2024,,*75
$L1BAT,4.082*26
$L1MAG,0.00,0.00,368,368*36
$GPGGA,062310.00,3510.5492,N,13653.1876,E,2,04,7.0,-9.4,M,35.5,M,,*4E
$GNGLL,3510.5492,N,13653.1876,E,062310.00,A,D*73
$GNGSA,A,3,21,194,195,02,,,,,,,,,7.1,7.0,1.0*2C
$GPGSV,3,1,12,02,77,231,31,03,10,169,00,07,40,251,00,08,55,042,*7F
$GPGSV,3,2,12,10,15,048,37,14,19,313,18,16,14,126,00,17,06,270,10*70
$GPGSV,3,3,12,21,83,033,36,22,01,311,,27,23,071,35,30,31,290,19*73
$GQGSV,2,1,05,02,80,136,34,03,80,175,37,04,14,176,00,07,48,196,24*79
$GQGSV,2,2,05,56,,,37,,,,,,,,,,,,*7A
$GNRMC,062310.00,A,3510.5492,N,13653.1876,E,2.6,342.9,270224,7.9,W,D*3A
$GNVTG,342.9,T,350.9,M,2.6,N,4.8,K,D*33
$GNZDA,062310.00,27,02,2024,,*7D
$L1BAT,4.082*26
$L1MAG,0.00,0.00,720,720*36
$GPGGA,062311.00,3510.5492,N,13653.1876,E,2,04,7.0,-9.4,M,35.5,M,,*4F
$GNGLL,3510.5492,N,13653.1876,E,062311.00,A,D*72
$GNGSA,A,3,21,194,195,02,,,,,,,,,7.1,7.0,1.0*2C
$GPGSV,3,1,12,02,77,231,37,03,10,169,00,07,40,251,04,08,55,043,*7C
$GPGSV,3,2,12,10,15,048,36,14,19,313,17,16,14,126,03,17,06,270,09*75
$GPGSV,3,3,12,21,83,033,34,22,01,311,,27,23,071,32,30,31,290,17*78
$GQGSV,2,1,05,02,80,136,33,03,80,175,36,04,14,176,00,07,48,196,23*78
$GQGSV,2,2,05,56,,,35,,,,,,,,,,,,*78
$GNRMC,062311.00,A,3510.5492,N,13653.1876,E,2.6,161.3,270224,7.9,W,D*32
$GNVTG,161.3,T,169.2,M,2.6,N,4.8,K,D*39
$GNZDA,062311.00,27,02,2024,,*7C
$L1BAT,4.082*26
$L1MAG,0.00,0.00,925,925*36
$GPGGA,062312.00,3510.5492,N,13653.1876,E,2,04,7.0,-9.5,M,35.5,M,,*4D
$GNGLL,3510.5492,N,13653.1876,E,062312.00,A,D*71
$GNGSA,A,3,21,194,195,02,,,,,,,,,7.1,7.0,1.0*2C
$GPGSV,3,1,12,02,77,231,36,03,10,169,00,07,40,251,19,08,55,043,*71
$GPGSV,3,2,12,10,15,048,34,14,19,313,24,16,14,126,00,17,06,270,00*7D
$GPGSV,3,3,12,21,83,033,30,22,01,311,,27,23,071,31,30,31,290,20*7B
$GQGSV,2,1,05,02,80,136,31,03,80,175,34,04,14,176,04,07,48,196,22*7D
$GQGSV,2,2,05,56,,,31,,,,,,,,,,,,*7C
$GNRMC,062312.00,A,3510.5492,N,13653.1876,E,,160.5,270224,7.9,W,D*1C
$GNVTG,160.5,T,168.5,M,,N,,K,D*30
$GNZDA,062312.00,27,02,2024,,*7F
$L1BAT,4.082*26
$L1MAG,0.00,0.00,891,891*36
$GPGGA,062313.00,3510.5492,N,13653.1876,E,2,04,7.0,-9.5,M,35.5,M,,*4C
$GNGLL,3510.5492,N,13653.1876,E,062313.00,A,D*70
$GNGSA,A,3,21,194,195,02,,,,,,,,,7.1,7.0,1.0*2C
$GPGSV,3,1,12,02,77,231,34,03,10,169,19,07,40,251,24,08,55,043,*75
$GPGSV,3,2,12,10,15,048,38,14,19,313,23,16,14,126,00,17,06,270,13*74
$GPGSV,3,3,12,21,83,033,35,22,01,311,,27,23,071,35,30,31,289,27*75
$GQGSV,2,1,05,02,80,136,27,03,80,175,32,04,14,176,04,07,48,196,27*79
$GQGSV,2,2,05,56,,,30,,,,,,,,,,,,*7D
$GNRMC,062313.00,A,3510.5492,N,13653.1876,E,2.6,160.5,270224,7.9,W,D*37
$GNVTG,160.5,T,168.5,M,2.6,N,4.8,K,D*38
$GNZDA,062313.00,27,02,2024,,*7E
$L1BAT,4.082*26
$L1MAG,0.00,0.00,633,633*36
$GPGGA,062314.01,3510.5499,N,13653.1855,E,2,04,7.0,-9.6,M,35.5,M,,*43
$GNGLL,3510.5499,N,13653.1855,E,062314.01,A,D*7C
$GNGSA,A,3,21,194,195,02,,,,,,,,,7.1,7.0,1.0*2C
$GPGSV,3,1,12,02,77,231,34,03,10,169,18,07,40,251,26,08,55,043,*76
$GPGSV,3,2,12,10,15,048,33,14,19,313,25,16,14,126,07,17,06,270,00*7C
$GPGSV,3,3,12,21,83,033,34,22,01,311,,27,23,071,30,30,31,289,24*72
$GQGSV,2,1,05,02,80,136,28,03,80,175,31,04,14,176,00,07,48,196,33*74
$GQGSV,2,2,05,56,,,33,,,,,,,,,,,,*7E
$GNRMC,062314.01,A,3510.5499,N,13653.1855,E,2.4,160.5,270224,7.9,W,D*39
$GNVTG,160.5,T,168.5,M,2.4,N,4.4,K,D*36
$GNZDA,062314.01,27,02,2024,,*78
$L1BAT,4.082*26
$L1MAG,0.00,0.00,643,643*36
$GPGGA,062315.00,3510.5492,N,13653.1859,E,2,04,7.0,-9.6,M,35.5,M,,*44
$GNGLL,3510.5492,N,13653.1859,E,062315.00,A,D*7B
$GNGSA,A,3,21,194,195,02,,,,,,,,,7.1,7.0,1.0*2C
$GPGSV,3,1,12,02,77,231,31,03,10,169,12,07,40,251,30,08,55,043,*7E
$GPGSV,3,2,12,10,15,048,32,14,19,313,24,16,14,126,00,17,06,270,11*7B
$GPGSV,3,3,12,21,83,033,36,22,01,311,,27,23,071,27,30,31,289,21*73
$GQGSV,2,1,05,02,80,136,34,03,80,175,35,04,14,176,00,07,48,196,28*77
$GQGSV,2,2,05,56,,,36,,,,,,,,,,,,*7B
$GNRMC,062315.00,A,3510.5492,N,13653.1859,E,2.4,120.7,270224,7.9,W,D*38
$GNVTG,120.7,T,128.6,M,2.4,N,4.4,K,D*37
$GNZDA,062315.00,27,02,2024,,*78
$L1BAT,4.082*26
$L1MAG,0.00,0.00,710,710*36
$GPGGA,062316.00,3510.5482,N,13653.1867,E,2,04,7.0,-9.6,M,35.5,M,,*4B
$GNGLL,3510.5482,N,13653.1867,E,062316.00,A,D*74
$GNGSA,A,3,21,194,195,02,,,,,,,,,7.1,7.0,1.0*2C
$GPGSV,3,1,12,02,77,231,36,03,10,169,12,07,40,251,30,08,55,043,*79
$GPGSV,3,2,12,10,15,048,31,14,19,313,22,16,14,126,00,17,06,270,00*7E
$GPGSV,3,3,12,21,83,033,37,22,01,311,,27,23,071,28,30,31,289,16*79
$GQGSV,2,1,05,02,80,136,35,03,80,175,37,04,14,176,00,07,48,196,29*75
$GQGSV,2,2,05,56,,,39,,,,,,,,,,,,*74
$GNRMC,062316.00,A,3510.5482,N,13653.1867,E,2.4,140.0,270224,7.9,W,D*36
$GNVTG,140.0,T,147.9,M,2.4,N,4.4,K,D*30
$GNZDA,062316.00,27,02,2024,,*7B
$L1BAT,4.082*26
$L1MAG,0.00,0.00,845,845*36
$GPGGA,062317.00,3510.5477,N,13653.1872,E,2,04,7.0,-9.6,M,35.5,M,,*44
$GNGLL,3510.5477,N,13653.1872,E,062317.00,A,D*7B
$GNGSA,A,3,21,194,195,02,,,,,,,,,7.1,7.0,1.0*2C
$GPGSV,3,1,12,02,77,231,38,03,10,169,17,07,40,251,43,08,55,043,*76
$GPGSV,3,2,12,10,15,048,29,14,19,313,24,16,14,126,00,17,06,270,00*71
$GPGSV,3,3,12,21,83,033,35,22,01,311,,27,23,071,26,30,31,289,10*73
$GQGSV,2,1,05,02,80,136,34,03,80,175,37,04,14,176,00,07,48,196,32*7E
$GQGSV,2,2,05,56,,,36,,,,,,,,,,,,*7B
$GNRMC,062317.00,A,3510.5477,N,13653.1872,E,2.5,158.5,270224,7.9,W,D*34
$GNVTG,158.5,T,166.4,M,2.5,N,4.6,K,D*31
$GNZDA,062317.00,27,02,2024,,*7A
$L1BAT,4.082*26
$L1MAG,0.00,0.00,867,867*36
$GPGGA,062318.00,3510.5472,N,13653.1879,E,2,04,7.0,-9.6,M,35.5,M,,*45
$GNGLL,3510.5472,N,13653.1879,E,062318.00,A,D*7A
$GNGSA,A,3,21,194,195,02,,,,,,,,,7.1,7.0,1.0*2C
$GPGSV,3,1,12,02,77,231,38,03,10,169,20,07,40,251,37,08,55,043,*71
$GPGSV,3,2,12,10,15,048,28,14,19,313,27,16,14,126,00,17,06,270,00*73
$GPGSV,3,3,12,21,83,033,32,22,01,311,,27,23,071,25,30,31,289,13*74
$GQGSV,2,1,05,02,80,136,37,03,80,175,39,04,14,176,07,07,48,196,32*74
$GQGSV,2,2,05,56,,,38,,,,,,,,,,,,*75
$GNRMC,062318.00,A,3510.5472,N,13653.1879,E,2.5,157.6,270224,7.9,W,D*39
$GNVTG,157.6,T,165.6,M,2.5,N,4.7,K,D*3D
$GNZDA,062318.00,27,02,2024,,*75
$L1BAT,4.082*26
$L1MAG,0.00,0.00,824,824*36
$GPGGA,062319.00,3510.5466,N,13653.1893,E,2,04,7.0,-9.6,M,35.5,M,,*45
$GNGLL,3510.5466,N,13653.1893,E,062319.00,A,D*7A
$GNGSA,A,3,21,194,195,02,,,,,,,,,7.1,7.0,1.0*2C
$GPGSV,3,1,12,02,77,231,34,03,10,169,15,07,40,251,32,08,55,043,*7E
$GPGSV,3,2,12,10,15,048,28,14,19,313,27,16,14,126,00,17,06,270,00*73
$GPGSV,3,3,12,21,83,033,33,22,01,311,,27,23,071,28,30,31,289,00*7A
$GQGSV,2,1,05,02,80,136,36,03,80,175,37,04,14,176,00,07,48,196,34*7A
$GQGSV,2,2,05,56,,,39,,,,,,,,,,,,*74
$GNRMC,062319.00,A,3510.5466,N,13653.1893,E,2.6,145.7,270224,7.9,W,D*38
$GNVTG,145.7,T,153.6,M,2.6,N,4.8,K,D*36
$GNZDA,062319.00,27,02,2024,,*74
$L1BAT,4.082*26
$L1MAG,0.00,0.00,529,529*36
$GPGGA,062320.00,3510.5467,N,13653.1909,E,2,04,7.0,-9.5,M,35.5,M,,*4F
$GNGLL,3510.5467,N,13653.1909,E,062320.00,A,D*73
$GNGSA,A,3,21,194,195,02,,,,,,,,,7.1,7.0,1.0*2C
$GPGSV,3,1,12,02,77,231,33,03,10,169,20,07,40,251,27,08,55,043,*7B
$GPGSV,3,2,12,10,15,048,29,14,19,313,30,16,14,126,10,17,06,270,11*75
$GPGSV,3,3,12,21,82,033,34,22,01,311,,27,23,071,32,30,31,289,00*77
$GQGSV,2,1,05,02,80,137,36,03,80,175,36,04,14,176,00,07,48,196,29*76
$GQGSV,2,2,05,56,,,39,,,,,,,,,,,,*74
$GNRMC,062320.00,A,3510.5467,N,13653.1909,E,3.8,120.2,270224,7.9,W,D*38
$GNVTG,120.2,T,128.1,M,3.8,N,7.0,K,D*3F
$GNZDA,062320.00,27,02,2024,,*7E
$L1BAT,4.082*26
$L1MAG,0.00,0.00,551,551*36
$GPGGA,062321.00,3510.5463,N,13653.1927,E,2,04,7.0,-9.5,M,35.5,M,,*46
$GNGLL,3510.5463,N,13653.1927,E,062321.00,A,D*7A
$GNGSA,A,3,21,194,195,02,,,,,,,,,7.1,7.0,1.0*2C
$GPGSV,3,1,12,02,77,231,31,03,10,169,18,07,40,251,28,08,55,043,*7D
$GPGSV,3,2,12,10,15,048,28,14,19,313,26,16,14,126,00,17,06,270,18*7B
$GPGSV,3,3,12,21,82,033,35,22,01,311,,27,23,071,36,30,31,289,10*73
$GQGSV,2,1,05,02,80,137,33,03,80,175,35,04,14,176,11,07,48,196,28*71
$GQGSV,2,2,05,56,,,34,,,,,,,,,,,,*79
$GNRMC,062321.00,A,3510.5463,N,13653.1927,E,5.9,110.2,270224,7.9,W,D*35
$GNVTG,110.2,T,118.2,M,5.9,N,11.0,K,D*0C
$GNZDA,062321.00,27,02,2024,,*7F
$L1BAT,4.082*26
$L1MAG,0.00,0.00,635,635*36
$GPGGA,062322.00,3510.5460,N,13653.1944,E,2,04,7.0,-9.5,M,35.5,M,,*43
$GNGLL,3510.5460,N,13653.1944,E,062322.00,A,D*7F
$GNGSA,A,3,21,194,195,02,,,,,,,,,7.1,7.0,1.0*2C
$GPGSV,3,1,12,02,77,231,33,03,10,169,12,07,40,251,28,08,55,043,*75
$GPGSV,3,2,12,10,15,048,32,14,19,313,27,16,14,126,00,17,06,270,20*7A
$GPGSV,3,3,12,21,82,033,35,22,01,311,,27,23,071,38,30,31,289,00*7C
$GQGSV,2,1,05,02,80,137,31,03,80,175,32,04,14,176,04,07,48,196,24*7C
$GQGSV,2,2,05,56,,,31,,,,,,,,,,,,*7C
$GNRMC,062322.00,A,3510.5460,N,13653.1944,E,9.8,106.4,270224,7.9,W,D*3C
$GNVTG,106.4,T,114.3,M,9.8,N,18.2,K,D*06
$GNZDA,062322.00,27,02,2024,,*7C
$L1BAT,4.082*26
$L1MAG,0.00,0.00,759,759*36
$GPGGA,062323.01,3510.5459,N,13653.1983,E,2,04,7.0,-9.5,M,35.5,M,,*42
$GNGLL,3510.5459,N,13653.1983,E,062323.01,A,D*7E
$GNGSA,A,3,21,194,195,02,,,,,,,,,7.1,7.0,1.0*2C
$GPGSV,3,1,12,02,77,231,34,03,10,169,20,07,40,251,25,08,55,043,*7E
$GPGSV,3,2,12,10,15,048,29,14,19,313,25,16,14,126,00,17,06,270,23*71
$GPGSV,3,3,12,21,82,033,37,22,01,311,,27,23,071,36,30,31,289,00*70
$GQGSV,2,1,05,02,80,137,37,03,80,175,37,04,14,176,09,07,48,196,17*72
$GQGSV,2,2,05,56,,,39,,,,,,,,,,,,*74
$GNRMC,062323.01,A,3510.5459,N,13653.1983,E,9.8,96.7,270224,7.9,W,D*06
$GNVTG,96.7,T,104.7,M,9.8,N,18.2,K,D*38
$GNZDA,062323.01,27,02,2024,,*7C
$L1BAT,4.082*26
$L1MAG,0.00,0.00,871,871*36
$GPGGA,062324.00,3510.5458,N,13653.2005,E,2,04,7.0,-9.5,M,35.5,M,,*41
$GNGLL,3510.5458,N,13653.2005,E,062324.00,A,D*7D
$GNGSA,A,3,21,194,195,02,,,,,,,,,7.1,7.0,1.0*2C
$GPGSV,3,1,12,02,77,231,36,03,10,169,16,07,40,251,29,08,55,043,*75
$GPGSV,3,2,12,10,15,048,28,14,19,313,28,16,14,126,00,17,06,270,25*7B
$GPGSV,3,3,12,21,82,033,37,22,01,311,,27,23,071,35,30,31,289,00*73
$GQGSV,2,1,05,02,80,137,37,03,80,175,38,04,14,176,00,07,48,196,16*75
$GQGSV,2,2,05,56,,,39,,,,,,,,,,,,*74
$GNRMC,062324.00,A,3510.5458,N,13653.2005,E,8.7,93.7,270224,7.9,W,D*0E
$GNVTG,93.7,T,101.7,M,8.7,N,16.1,K,D*3B
$GNZDA,062324.00,27,02,2024,,*7A
$L1BAT,4.082*26
$L1MAG,0.00,0.00,920,920*36
$GPGGA,062325.00,3510.5459,N,13653.2023,E,2,04,7.0,-9.5,M,35.5,M,,*45
$GNGLL,3510.5459,N,13653.2023,E,062325.00,A,D*79
$GNGSA,A,3,21,194,195,02,,,,,,,,,7.1,7.0,1.0*2C
$GPGSV,3,1,12,02,77,231,37,03,10,169,19,07,40,251,32,08,55,043,*71
$GPGSV,3,2,12,10,15,048,23,14,19,313,33,16,14,126,00,17,06,270,28*77
$GPGSV,3,3,12,21,82,033,36,22,01,311,,27,23,071,29,30,31,289,00*7F
$GQGSV,2,1,05,02,80,137,36,03,80,175,37,04,14,176,00,07,48,196,28*76
$GQGSV,2,2,05,56,,,39,,,,,,,,,,,,*74
$GNRMC,062325.00,A,3510.5459,N,13653.2023,E,7.2,91.1,270224,7.9,W,D*04
$GNVTG,91.1,T,99.0,M,7.2,N,13.3,K,D*05
$GNZDA,062325.00,27,02,2024,,*7B
$L1BAT,4.082*26
$L1MAG,0.00,0.00,820,820*36
$GPGGA,062326.00,3510.5462,N,13653.2033,E,2,04,7.0,-9.6,M,35.5,M,,*4C
$GNGLL,3510.5462,N,13653.2033,E,062326.00,A,D*73
$GNGSA,A,3,21,194,195,02,,,,,,,,,7.1,7.0,1.0*2C
$GPGSV,3,1,12,02,77,231,37,03,10,169,22,07,40,251,38,08,55,043,*73
$GPGSV,3,2,12,10,15,048,11,14,19,313,30,16,14,126,00,17,06,270,31*7D
$GPGSV,3,3,12,21,82,033,35,22,01,311,,27,23,071,33,30,31,289,08*7F
$GQGSV,2,1,05,02,80,137,36,03,80,175,36,04,14,176,00,07,48,196,30*7E
$GQGSV,2,2,05,56,,,40,,,,,,,,,,,,*7A
$GNRMC,062326.00,A,3510.5462,N,13653.2033,E,3.3,88.5,270224,7.9,W,D*07
$GNVTG,88.5,T,96.4,M,3.3,N,6.2,K,D*32
$GNZDA,062326.00,27,02,2024,,*78
$L1BAT,4.082*26
$L1MAG,0.00,0.00,734,734*36
$GPGGA,062327.00,3510.5459,N,13653.2044,E,2,04,7.0,-9.6,M,35.5,M,,*45
$GNGLL,3510.5459,N,13653.2044,E,062327.00,A,D*7A
$GNGSA,A,3,21,194,195,02,,,,,,,,,7.1,7.0,1.0*2C
$GPGSV,3,1,12,02,77,231,36,03,10,169,13,07,40,251,35,08,55,043,*7D
$GPGSV,3,2,12,10,15,048,16,14,19,313,29,16,14,126,00,17,06,271,31*73
$GPGSV,3,3,12,21,82,033,33,22,01,311,,27,23,071,33,30,31,289,16*76
$GQGSV,2,1,05,02,80,137,36,03,80,175,36,04,14,176,00,07,48,196,32*7C
$GQGSV,2,2,05,56,,,39,,,,,,,,,,,,*74
$GNRMC,062327.00,A,3510.5459,N,13653.2044,E,3.8,90.0,270224,7.9,W,D*09
$GNVTG,90.0,T,97.9,M,3.8,N,7.0,K,D*3A
$GNZDA,062327.00,27,02,2024,,*79
$L1BAT,4.082*26
$L1MAG,0.00,0.00,751,751*36
$GPGGA,062328.00,3510.5462,N,13653.2054,E,2,04,7.0,-9.5,M,35.5,M,,*40
$GNGLL,3510.5462,N,13653.2054,E,062328.00,A,D*7C
$GNGSA,A,3,21,194,195,02,,,,,,,,,7.1,7.0,1.0*2C
$GPGSV,3,1,12,02,77,231,34,03,10,169,17,07,40,251,35,08,55,043,*7B
$GPGSV,3,2,12,10,15,048,29,14,19,313,32,16,14,126,16,17,06,271,32*71
$GPGSV,3,3,12,21,82,033,34,22,01,311,,27,23,071,36,30,31,289,17*75
$GQGSV,2,1,05,02,80,137,34,03,80,175,34,04,14,176,20,07,48,196,30*7C
$GQGSV,2,2,05,56,,,34,,,,,,,,,,,,*79
$GNRMC,062328.00,A,3510.5462,N,13653.2054,E,3.8,81.0,270224,7.9,W,D*0F
$GNVTG,81.0,T,88.9,M,3.8,N,7.0,K,D*34
$GNZDA,062328.00,27,02,2024,,*76
$L1BAT,4.082*26
$L1MAG,0.00,0.00,758,758*36
$GPGGA,062329.00,3510.5464,N,13653.2068,E,2,04,7.0,-9.5,M,35.5,M,,*48
$GNGLL,3510.5464,N,13653.2068,E,062329.00,A,D*74
$GNGSA,A,3,21,194,195,02,,,,,,,,,7.1,7.0,1.0*2C
$GPGSV,3,1,12,02,77,231,28,03,10,169,22,07,40,251,34,08,55,043,*71
$GPGSV,3,2,12,10,15,048,25,14,19,313,32,16,14,126,03,17,06,271,31*7A
$GPGSV,3,3,12,21,82,033,30,22,01,311,,27,23,071,38,30,31,289,14*7C
$GQGSV,2,1,05,02,80,137,31,03,80,175,32,04,14,176,23,07,48,196,29*74
$GQGSV,2,2,05,56,,,34,,,,,,,,,,,,*79
$GNRMC,062329.00,A,3510.5464,N,13653.2068,E,,78.4,270224,7.9,W,D*20
$GNVTG,78.4,T,86.3,M,,N,,K,D*3E
$GNZDA,062329.00,27,02,2024,,*77
$L1BAT,4.082*26
$L1MAG,0.00,0.00,743,743*36
$GPGGA,062330.00,3510.5464,N,13653.2087,E,2,04,7.0,-9.5,M,35.5,M,,*41
$GNGLL,3510.5464,N,13653.2087,E,062330.00,A,D*7D
$GNGSA,A,3,21,194,195,02,,,,,,,,,7.1,7.0,1.0*2C
$GPGSV,3,1,12,02,77,231,35,03,10,169,20,07,40,251,36,08,55,043,*7D
$GPGSV,3,2,12,10,15,048,27,14,19,313,31,16,14,126,00,17,06,271,33*7A
$GPGSV,3,3,12,21,82,033,36,22,01,311,,27,23,071,37,30,31,289,21*73
$GQGSV,2,1,05,02,80,137,34,03,80,175,34,04,14,176,24,07,48,196,28*71
$GQGSV,2,2,05,56,,,36,,,,,,,,,,,,*7B
$GNRMC,062330.00,A,3510.5464,N,13653.2087,E,3.8,79.8,270224,7.9,W,D*01
$GNVTG,79.8,T,87.8,M,3.8,N,7.0,K,D*35
$GNZDA,062330.00,27,02,2024,,*7F
$L1BAT,4.082*26
$L1MAG,0.00,0.00,630,630*36
$GPGGA,062331.00,3510.5462,N,13653.2104,E,2,04,7.0,-9.5,M,35.5,M,,*4C
$GNGLL,3510.5462,N,13653.2104,E,062331.00,A,D*70
$GNGSA,A,3,21,194,195,02,,,,,,,,,7.1,7.0,1.0*2C
$GPGSV,3,1,12,02,77,231,35,03,10,169,19,07,40,251,33,08,55,043,*72
$GPGSV,3,2,12,10,15,048,26,14,19,313,32,16,14,126,00,17,06,271,33*78
$GPGSV,3,3,12,21,82,033,34,22,01,311,,27,23,071,35,30,31,289,20*72
$GQGSV,2,1,05,02,80,137,36,03,80,175,36,04,14,176,26,07,48,196,29*72
$GQGSV,2,2,05,56,,,40,,,,,,,,,,,,*7A
$GNRMC,062331.00,A,3510.5462,N,13653.2104,E,5.2,83.1,270224,7.9,W,D*0C
$GNVTG,83.1,T,91.1,M,5.2,N,9.6,K,D*33
$GNZDA,062331.00,27,02,2024,,*7E
$L1BAT,4.082*26
$L1MAG,0.00,0.00,562,562*36
$GPGGA,062332.00,3510.5458,N,13653.2127,E,2,04,7.0,-9.5,M,35.5,M,,*47
$GNGLL,3510.5458,N,13653.2127,E,062332.00,A,D*7B
$GNGSA,A,3,21,194,195,02,,,,,,,,,7.1,7.0,1.0*2C
$GPGSV,3,1,12,02,77,231,35,03,10,169,12,07,40,251,31,08,55,043,*7B
$GPGSV,3,2,12,10,15,048,26,14,19,313,31,16,14,126,10,17,06,271,33*7A
$GPGSV,3,3,12,21,82,033,36,22,01,311,,27,23,071,35,30,31,289,15*76
$GQGSV,2,1,05,02,80,137,36,03,80,175,36,04,14,176,24,07,48,196,28*71
$GQGSV,2,2,05,56,,,38,,,,,,,,,,,,*75
$GNRMC,062332.00,A,3510.5458,N,13653.2127,E,5.2,85.1,270224,7.9,W,D*01
$GNVTG,85.1,T,93.0,M,5.2,N,9.6,K,D*36
$GNZDA,062332.00,27,02,2024,,*7D
$L1BAT,4.082*26
$L1MAG,0.00,0.00,621,621*36
$GPGGA,062333.00,3510.5457,N,13653.2157,E,2,04,7.0,-9.5,M,35.5,M,,*4E
$GNGLL,3510.5457,N,13653.2157,E,062333.00,A,D*72
$GNGSA,A,3,21,194,195,02,,,,,,,,,7.1,7.0,1.0*2C
$GPGSV,3,1,12,02,77,231,33,03,10,169,11,07,40,251,30,08,55,043,*7F
$GPGSV,3,2,12,10,15,048,25,14,19,313,30,16,14,126,06,17,06,271,31*7D
$GPGSV,3,3,12,21,82,033,34,22,01,311,,27,23,071,37,30,31,289,12*71
$GQGSV,2,1,05,02,80,137,34,03,80,175,35,04,14,176,23,07,48,196,32*7C
$GQGSV,2,2,05,56,,,36,,,,,,,,,,,,*7B
$GNRMC,062333.00,A,3510.5457,N,13653.2157,E,7.6,88.1,270224,7.9,W,D*03
$GNVTG,88.1,T,96.0,M,7.6,N,14.1,K,D*03
$GNZDA,062333.00,27,02,2024,,*7C
$L1BAT,4.082*26
$L1MAG,0.00,0.00,620,620*36
$GPGGA,062334.00,3510.5457,N,13653.2184,E,2,04,7.0,-9.5,M,35.5,M,,*47
$GNGLL,3510.5457,N,13653.2184,E,062334.00,A,D*7B
$GNGSA,A,3,21,194,195,02,,,,,,,,,7.1,7.0,1.0*2C
$GPGSV,3,1,12,02,77,231,33,03,10,169,12,07,40,251,31,08,55,043,*7D
$GPGSV,3,2,12,10,15,048,26,14,19,313,31,16,14,126,04,17,06,271,28*75
$GPGSV,3,3,12,21,82,033,33,22,01,311,,27,23,071,36,30,31,289,11*74
$GQGSV,2,1,05,02,80,137,36,03,80,175,36,04,14,176,18,07,48,196,28*7E
$GQGSV,2,2,05,56,,,38,,,,,,,,,,,,*75
$GNRMC,062334.00,A,3510.5457,N,13653.2184,E,,89.0,270224,7.9,W,D*25
$GNVTG,89.0,T,97.0,M,,N,,K,D*37
$GNZDA,062334.00,27,02,2024,,*7B
$L1BAT,4.082*26
$L1MAG,0.00,0.00,602,602*36
$GPGGA,062335.00,3510.5464,N,13653.2219,E,2,04,7.0,-9.5,M,35.5,M,,*41
$GNGLL,3510.5464,N,13653.2219,E,062335.00,A,D*7D
$GNGSA,A,3,21,194,195,02,,,,,,,,,7.1,7.0,1.0*2C
$GPGSV,3,1,12,02,77,231,32,03,10,169,00,07,40,251,31,08,55,043,*7F
$GPGSV,3,2,12,10,15,048,30,14,19,313,22,16,14,126,00,17,06,271,23*7F
$GPGSV,3,3,12,21,82,033,33,22,01,311,,27,23,071,34,30,31,289,00*76
$GQGSV,2,1,05,02,80,137,35,03,80,175,34,04,14,176,16,07,48,196,29*70
$GQGSV,2,2,05,56,,,35,,,,,,,,,,,,*78
$GNRMC,062335.00,A,3510.5464,N,13653.2219,E,8.9,86.2,270224,7.9,W,D*01
$GNVTG,86.2,T,94.1,M,8.9,N,16.5,K,D*0B
$GNZDA,062335.00,27,02,2024,,*7A
$L1BAT,4.082*26
$L1MAG,0.00,0.00,589,589*36
$GPGGA,062336.00,3510.5465,N,13653.2245,E,2,04,7.0,-9.5,M,35.5,M,,*4A
$GNGLL,3510.5465,N,13653.2245,E,062336.00,A,D*76
$GNGSA,A,3,21,194,195,02,,,,,,,,,7.1,7.0,1.0*2C
$GPGSV,3,1,12,02,77,231,33,03,10,169,00,07,40,251,32,08,55,043,*7D
$GPGSV,3,2,12,10,15,048,32,14,19,313,19,16,14,126,13,17,06,271,24*70
$GPGSV,3,3,12,21,82,033,34,22,01,311,,27,23,071,29,30,31,289,00*7D
$GQGSV,2,1,05,02,80,137,35,03,80,175,35,04,14,176,15,07,48,196,30*7A
$GQGSV,2,2,05,56,,,36,,,,,,,,,,,,*7B
$GNRMC,062336.00,A,3510.5465,N,13653.2245,E,9.2,85.8,270224,7.9,W,D*09
$GNVTG,85.8,T,93.7,M,9.2,N,17.1,K,D*0C
$GNZDA,062336.00,27,02,2024,,*79
$L1BAT,4.082*26
$L1MAG,0.00,0.00,654,654*36
$GPGGA,062337.00,3510.5465,N,13653.2278,E,2,04,7.0,-9.4,M,35.5,M,,*44
$GNGLL,3510.5465,N,13653.2278,E,062337.00,A,D*79
$GNGSA,A,3,21,194,195,02,,,,,,,,,7.1,7.0,1.0*2C
$GPGSV,3,1,12,02,77,231,32,03,10,169,00,07,40,251,30,08,55,043,*7E
$GPGSV,3,2,12,10,15,048,29,14,19,313,19,16,14,126,06,17,06,271,28*72
$GPGSV,3,3,12,21,82,033,34,22,01,311,,27,23,071,28,30,31,289,00*7C
$GQGSV,2,1,05,02,80,137,31,03,80,175,32,04,14,176,11,07,48,196,28*74
$GQGSV,2,2,05,56,,,33,,,,,,,,,,,,*7E
$GNRMC,062337.00,A,3510.5465,N,13653.2278,E,,85.7,270224,7.9,W,D*2C
$GNVTG,85.7,T,93.7,M,,N,,K,D*3F
$GNZDA,062337.00,27,02,2024,,*78
$L1BAT,4.066*2C
$L1MAG,0.00,0.00,732,732*36
$GPGGA,062338.00,3510.5466,N,13653.2321,E,2,04,7.0,-9.4,M,35.5,M,,*45
$GNGLL,3510.5466,N,13653.2321,E,062338.00,A,D*78
$GNGSA,A,3,21,194,195,02,,,,,,,,,7.1,7.0,1.0*2C
$GPGSV,3,1,12,02,77,231,32,03,10,169,10,07,40,251,31,08,55,043,*7E
$GPGSV,3,2,12,10,15,048,25,14,19,313,24,16,14,126,00,17,06,271,30*7F
$GPGSV,3,3,12,21,82,033,32,22,01,311,,27,23,071,19,30,31,289,09*71
$GQGSV,2,1,05,02,80,137,31,03,80,175,34,04,14,176,11,07,48,196,28*72
$GQGSV,2,2,05,56,,,34,,,,,,,,,,,,*79
$GNRMC,062338.00,A,3510.5466,N,13653.2321,E,,85.9,270224,7.9,W,D*23
$GNVTG,85.9,T,93.8,M,,N,,K,D*3E
$GNZDA,062338.00,27,02,2024,,*77
$L1BAT,4.066*2C
$L1MAG,0.00,0.00,648,648*36
$GPGGA,062339.03,3510.5466,N,13653.2354,E,2,04,7.0,-9.4,M,35.5,M,,*45
$GNGLL,3510.5466,N,13653.2354,E,062339.03,A,D*78
$GNGSA,A,3,21,194,195,02,,,,,,,,,7.1,7.0,1.0*2C
$GPGSV,3,1,12,02,77,231,32,03,10,169,14,07,40,251,30,08,55,043,*7B
$GPGSV,3,2,12,10,15,048,26,14,19,313,27,16,14,126,10,17,06,271,32*7C
$GPGSV,3,3,12,21,82,033,34,22,01,311,,27,23,071,22,30,31,289,07*71
$GQGSV,2,1,05,02,80,137,34,03,80,175,34,04,14,176,07,07,48,196,23*7B
$GQGSV,2,2,05,56,,,36,,,,,,,,,,,,*7B
$GNRMC,062339.03,A,3510.5466,N,13653.2354,E,9.2,93.1,270224,7.9,W,D*09
$GNVTG,93.1,T,101.0,M,9.2,N,17.1,K,D*3F
$GNZDA,062339.03,27,02,2024,,*75
$L1BAT,4.066*2C
$L1MAG,0.00,0.00,588,588*36
$GPGGA,062340.01,3510.5466,N,13653.2381,E,2,04,7.0,-9.4,M,35.5,M,,*41
$GNGLL,3510.5466,N,13653.2381,E,062340.01,A,D*7C
$GNGSA,A,3,21,194,195,02,,,,,,,,,7.1,7.0,1.0*2C
$GPGSV,3,1,12,02,77,232,33,03,10,169,00,07,40,251,28,08,55,043,*75
$GPGSV,3,2,12,10,15,048,24,14,19,313,25,16,14,126,07,17,06,271,30*78
$GPGSV,3,3,12,21,82,033,33,22,01,311,,27,23,071,19,30,31,289,23*78
$GQGSV,2,1,05,02,80,137,34,03,80,175,34,04,14,176,06,07,48,196,23*7A
$GQGSV,2,2,05,56,,,36,,,,,,,,,,,,*7B
$GNRMC,062340.01,A,3510.5466,N,13653.2381,E,7.2,95.4,270224,7.9,W,D*00
$GNVTG,95.4,T,103.3,M,7.2,N,13.4,K,D*32
$GNZDA,062340.01,27,02,2024,,*79
$L1BAT,4.066*2C
$L1MAG,0.00,0.00,626,626*36
$GPGGA,062341.01,3510.5465,N,13653.2405,E,2,04,7.0,-9.4,M,35.5,M,,*48
$GNGLL,3510.5465,N,13653.2405,E,062341.01,A,D*75
$GNGSA,A,3,21,194,195,02,,,,,,,,,7.1,7.0,1.0*2C
$GPGSV,3,1,12,02,77,232,35,03,10,169,00,07,40,251,29,08,55,043,*72
$GPGSV,3,2,12,10,15,048,22,14,19,313,25,16,14,126,10,17,06,271,30*78
$GPGSV,3,3,12,21,82,033,33,22,01,311,,27,23,071,20,30,31,289,25*74
$GQGSV,2,1,05,02,80,137,36,03,80,175,37,04,14,176,07,07,48,196,19*73
$GQGSV,2,2,05,56,,,38,,,,,,,,,,,,*75
$GNRMC,062341.01,A,3510.5465,N,13653.2405,E,7.2,96.4,270224,7.9,W,D*0A
$GNVTG,96.4,T,104.3,M,7.2,N,13.4,K,D*36
$GNZDA,062341.01,27,02,2024,,*78
$L1BAT,4.066*2C
$L1MAG,0.00,0.00,792,792*36
$GPGGA,062342.00,3510.5463,N,13653.2432,E,2,04,7.0,-9.4,M,35.5,M,,*48
$GNGLL,3510.5463,N,13653.2432,E,062342.00,A,D*75
$GNGSA,A,3,21,194,195,02,,,,,,,,,7.1,7.0,1.0*2C
$GPGSV,3,1,12,02,77,232,36,03,10,169,13,07,40,251,31,08,55,043,*7A
$GPGSV,3,2,12,10,15,048,21,14,19,313,27,16,14,126,00,17,06,271,27*7E
$GPGSV,3,3,12,21,82,033,36,22,01,311,,27,23,071,21,30,31,289,23*76
$GQGSV,2,1,05,02,80,137,39,03,80,175,38,04,14,176,14,07,48,196,14*7C
$GQGSV,2,2,05,56,,,42,,,,,,,,,,,,*78
$GNRMC,062342.00,A,3510.5463,N,13653.2432,E,7.2,93.9,270224,7.9,W,D*02
$GNVTG,93.9,T,101.9,M,7.2,N,13.4,K,D*31
$GNZDA,062342.00,27,02,2024,,*7A
$L1BAT,4.066*2C
$L1MAG,0.00,0.00,860,860*36
$GPGGA,062343.00,3510.5457,N,13653.2455,E,2,04,7.0,-9.3,M,35.5,M,,*48
$GNGLL,3510.5457,N,13653.2455,E,062343.00,A,D*72
$GNGSA,A,3,21,194,195,02,,,,,,,,,7.1,7.0,1.0*2C
$GPGSV,3,1,12,02,77,232,34,03,10,169,20,07,40,251,32,08,55,043,*7B
$GPGSV,3,2,12,10,15,048,22,14,19,313,26,16,14,126,00,17,06,271,25*7E
$GPGSV,3,3,12,21,82,033,36,22,01,311,,27,23,071,23,30,31,289,22*75
$GQGSV,2,1,05,02,80,137,33,03,80,175,33,04,14,176,20,07,48,196,20*7D
$GQGSV,2,2,05,56,,,33,,,,,,,,,,,,*7E
$GNRMC,062343.00,A,3510.5457,N,13653.2455,E,6.2,95.4,270224,7.9,W,D*0F
$GNVTG,95.4,T,103.4,M,6.2,N,11.5,K,D*37
$GNZDA,062343.00,27,02,2024,,*7B
$L1BAT,4.066*2C
$L1MAG,0.00,0.00,780,780*36
$GPGGA,062344.00,3510.5458,N,13653.2476,E,2,04,7.0,-9.3,M,35.5,M,,*41
$GNGLL,3510.5458,N,13653.2476,E,062344.00,A,D*7B
$GNGSA,A,3,21,194,195,02,,,,,,,,,7.1,7.0,1.0*2C
$GPGSV,3,1,12,02,78,232,28,03,10,169,22,07,40,251,30,08,55,043,*79
$GPGSV,3,2,12,10,15,048,23,14,19,313,30,16,14,126,00,17,06,271,25*78
$GPGSV,3,3,12,21,82,033,35,22,01,311,,27,23,071,22,30,31,289,24*71
$GQGSV,2,1,05,02,80,137,28,03,80,175,30,04,14,176,23,07,48,196,22*75
$GQGSV,2,2,05,56,,,29,,,,,,,,,,,,*75
$GNRMC,062344.00,A,3510.5458,N,13653.2476,E,,95.8,270224,7.9,W,D*20
$GNVTG,95.8,T,103.7,M,,N,,K,D*09
$GNZDA,062344.00,27,02,2024,,*7C
$L1BAT,4.066*2C
$L1MAG,0.00,0.00,657,657*36
$GPGGA,062345.00,3510.5456,N,13653.2500,E,2,04,7.0,-9.3,M,35.5,M,,*4E
$GNGLL,3510.5456,N,13653.2500,E,062345.00,A,D*74
$GNGSA,A,3,21,194,195,02,,,,,,,,,7.1,7.0,1.0*2C
$GPGSV,3,1,12,02,78,232,32,03,10,169,24,07,40,251,34,08,55,043,*70
$GPGSV,3,2,12,10,15,048,23,14,19,313,29,16,14,126,00,17,06,271,24*71
$GPGSV,3,3,12,21,82,033,34,22,01,311,,27,23,071,20,30,31,289,25*73
$GQGSV,2,1,05,02,80,137,33,03,80,175,34,04,14,176,30,07,48,196,22*79
$GQGSV,2,2,05,56,,,36,,,,,,,,,,,,*7B
$GNRMC,062345.00,A,3510.5456,N,13653.2500,E,,95.8,270224,7.9,W,D*2F
$GNVTG,95.8,T,103.7,M,,N,,K,D*09
$GNZDA,062345.00,27,02,2024,,*7D
$L1BAT,4.066*2C
$L1MAG,0.00,0.00,658,658*36
$GPGGA,062346.00,3510.5459,N,13653.2520,E,2,04,7.0,-9.3,M,35.5,M,,*40
$GNGLL,3510.5459,N,13653.2520,E,062346.00,A,D*7A
$GNGSA,A,3,21,194,195,02,,,,,,,,,7.1,7.0,1.0*2C
$GPGSV,3,1,12,02,78,232,32,03,10,169,21,07,40,251,31,08,55,043,*70
$GPGSV,3,2,12,10,15,048,21,14,19,313,26,16,14,126,00,17,06,271,26*7E
$GPGSV,3,3,12,21,82,033,33,22,01,311,,27,23,071,17,30,31,289,25*70
$GQGSV,2,1,05,02,80,137,34,03,80,175,35,04,14,176,35,07,48,196,28*70
$GQGSV,2,2,05,56,,,36,,,,,,,,,,,,*7B
$GNRMC,062346.00,A,3510.5459,N,13653.2520,E,5.5,99.2,270224,7.9,W,D*09
$GNVTG,99.2,T,107.1,M,5.5,N,10.2,K,D*3E
$GNZDA,062346.00,27,02,2024,,*7E
$L1BAT,4.066*2C
$L1MAG,0.00,0.00,660,660*36
$GPGGA,062347.00,3510.5461,N,13653.2544,E,2,04,7.0,-9.2,M,35.5,M,,*49
$GNGLL,3510.5461,N,13653.2544,E,062347.00,A,D*72
$GNGSA,A,3,21,194,195,02,,,,,,,,,7.1,7.0,1.0*2C
$GPGSV,3,1,12,02,78,232,35,03,10,169,21,07,40,251,30,08,55,043,*76
$GPGSV,3,2,12,10,15,048,20,14,19,313,28,16,14,126,00,17,06,271,24*73
$GPGSV,3,3,12,21,82,033,33,22,01,311,,27,23,071,19,30,31,289,23*78
$GQGSV,2,1,05,02,80,137,36,03,80,175,36,04,14,176,31,07,48,196,29*74
$GQGSV,2,2,05,56,,,39,,,,,,,,,,,,*74
$GNRMC,062347.00,A,3510.5461,N,13653.2544,E,5.5,92.3,270224,7.9,W,D*0B
$GNVTG,92.3,T,100.2,M,5.5,N,10.2,K,D*30
$GNZDA,062347.00,27,02,2024,,*7F
$L1BAT,4.066*2C
$L1MAG,0.00,0.00,602,602*36
$GPGGA,062348.00,3510.5464,N,13653.2568,E,2,04,7.0,-9.2,M,35.5,M,,*4D
$GNGLL,3510.5464,N,13653.2568,E,062348.00,A,D*76
$GNGSA,A,3,21,194,195,02,,,,,,,,,7.1,7.0,1.0*2C
$GPGSV,3,1,12,02,78,232,29,03,10,169,17,07,40,251,32,08,55,043,*7C
$GPGSV,3,2,12,10,15,048,17,14,19,313,28,16,14,126,00,17,06,271,24*77
$GPGSV,3,3,12,21,82,033,32,22,01,311,,27,23,071,22,30,31,289,26*74
$GQGSV,2,1,05,02,80,137,29,03,80,175,30,04,14,176,23,07,48,196,26*70
$GQGSV,2,2,05,56,,,31,,,,,,,,,,,,*7C
$GNRMC,062348.00,A,3510.5464,N,13653.2568,E,,90.1,270224,7.9,W,D*21
$GNVTG,90.1,T,98.0,M,,N,,K,D*31
$GNZDA,062348.00,27,02,2024,,*70
$L1BAT,4.066*2C
$L1MAG,0.00,0.00,637,637*36
$GPGGA,062349.00,3510.5467,N,13653.2603,E,2,04,7.0,-9.2,M,35.5,M,,*41
$GNGLL,3510.5467,N,13653.2603,E,062349.00,A,D*7A
$GNGSA,A,3,21,194,195,02,,,,,,,,,7.1,7.0,1.0*2C
$GPGSV,3,1,12,02,78,232,29,03,10,169,14,07,40,251,33,08,55,043,*7E
$GPGSV,3,2,12,10,15,048,14,14,19,313,26,16,14,126,00,17,06,271,29*77
$GPGSV,3,3,12,21,82,033,34,22,01,311,,27,23,071,28,30,31,289,26*78
$GQGSV,2,1,05,02,80,137,30,03,80,175,33,04,14,176,16,07,48,196,17*7F
$GQGSV,2,2,05,56,,,32,,,,,,,,,,,,*7F
$GNRMC,062349.00,A,3510.5467,N,13653.2603,E,,89.3,270224,7.9,W,D*27
$GNVTG,89.3,T,97.2,M,,N,,K,D*36
$GNZDA,062349.00,27,02,2024,,*71
$L1BAT,4.066*2C
$L1MAG,0.00,0.00,658,658*36
$GPGGA,062350.02,3510.5465,N,13653.2635,E,2,04,7.0,-9.2,M,35.5,M,,*4C
$GNGLL,3510.5465,N,13653.2635,E,062350.02,A,D*77
$GNGSA,A,3,21,194,195,02,,,,,,,,,7.1,7.0,1.0*2C
$GPGSV,3,1,12,02,78,232,32,03,10,169,18,07,40,251,28,08,55,043,*72
$GPGSV,3,2,12,10,15,048,16,14,19,313,23,16,14,126,00,17,06,271,30*78
$GPGSV,3,3,12,21,82,033,33,22,01,311,,27,23,071,22,30,31,289,26*75
$GQGSV,2,1,05,02,80,137,33,03,80,175,33,04,14,176,19,07,48,196,24*73
$GQGSV,2,2,05,56,,,36,,,,,,,,,,,,*7B
$GNRMC,062350.02,A,3510.5465,N,13653.2635,E,8.6,95.2,270224,7.9,W,D*06
$GNVTG,95.2,T,103.1,M,8.6,N,15.8,K,D*37
$GNZDA,062350.02,27,02,2024,,*7B
$L1BAT,4.066*2C
$L1MAG,0.00,0.00,620,620*36
$GPGGA,062351.01,3510.5466,N,13653.2671,E,2,04,7.0,-9.2,M,35.5,M,,*4D
$GNGLL,3510.5466,N,13653.2671,E,062351.01,A,D*76
$GNGSA,A,3,21,194,195,02,,,,,,,,,7.1,7.0,1.0*2C
$GPGSV,3,1,12,02,78,232,31,03,10,169,00,07,40,251,28,08,55,043,*78
$GPGSV,3,2,12,10,15,048,19,14,19,313,25,16,14,126,00,17,06,271,30*71
$GPGSV,3,3,12,21,82,033,33,22,01,311,,27,23,071,22,30,31,289,29*7A
$GQGSV,2,1,05,02,80,137,33,03,80,175,29,04,14,176,16,07,48,196,28*7B
$GQGSV,2,2,05,56,,,34,,,,,,,,,,,,*79
$GNRMC,062351.01,A,3510.5466,N,13653.2671,E,8.7,94.5,270224,7.9,W,D*00
$GNVTG,94.5,T,102.5,M,8.7,N,16.0,K,D*3E
$GNZDA,062351.01,27,02,2024,,*79
$L1BAT,4.066*2C
$L1MAG,0.00,0.00,612,612*36
$GPGGA,062352.00,3510.5466,N,13653.2697,E,2,04,7.0,-9.1,M,35.5,M,,*44
$GNGLL,3510.5466,N,13653.2697,E,062352.00,A,D*7C
$GNGSA,A,3,21,194,195,02,,,,,,,,,7.1,7.0,1.0*2C
$GPGSV,3,1,12,02,78,232,31,03,10,169,03,07,40,251,26,08,55,043,*75
$GPGSV,3,2,12,10,15,048,18,14,19,313,25,16,14,126,00,17,06,271,30*70
$GPGSV,3,3,12,21,82,033,30,22,01,311,,27,22,071,22,30,31,289,25*74
$GQGSV,2,1,05,02,80,137,29,03,80,175,26,04,14,176,16,07,48,196,24*73
$GQGSV,2,2,05,56,,,29,,,,,,,,,,,,*75
$GNRMC,062352.00,A,3510.5466,N,13653.2697,E,,94.3,270224,7.9,W,D*2D
$GNVTG,94.3,T,102.2,M,,N,,K,D*07
$GNZDA,062352.00,27,02,2024,,*7B
$L1BAT,4.066*2C
$L1MAG,0.00,0.00,580,580*36
$GPGGA,062353.04,3510.5467,N,13653.2741,E,2,04,7.0,-9.1,M,35.5,M,,*4A
$GNGLL,3510.5467,N,13653.2741,E,062353.04,A,D*72
$GNGSA,A,3,21,194,195,02,,,,,,,,,7.1,7.0,1.0*2C
$GPGSV,3,1,12,02,78,232,31,03,10,169,00,07,40,251,27,08,55,043,*77
$GPGSV,3,2,12,10,15,048,23,14,19,313,28,16,14,126,00,17,06,271,28*7C
$GPGSV,3,3,12,21,82,033,32,22,01,311,,27,22,071,25,30,31,289,26*72
$GQGSV,2,1,05,02,80,137,32,03,80,175,33,04,14,176,18,07,48,196,20*77
$GQGSV,2,2,05,56,,,35,,,,,,,,,,,,*78
$GNRMC,062353.04,A,3510.5467,N,13653.2741,E,9.8,89.8,270224,7.9,W,D*0B
$GNVTG,89.8,T,97.7,M,9.8,N,18.2,K,D*02
$GNZDA,062353.04,27,02,2024,,*7E
$L1BAT,4.066*2C
$L1MAG,0.00,0.00,588,588*36
$GPGGA,062354.00,3510.5468,N,13653.2779,E,2,04,7.0,-9.1,M,35.5,M,,*4D
$GNGLL,3510.5468,N,13653.2779,E,062354.00,A,D*75
$GNGSA,A,3,21,194,195,02,,,,,,,,,7.1,7.0,1.0*2C
$GPGSV,3,1,12,02,78,232,34,03,10,169,00,07,40,251,28,08,55,043,*7D
$GPGSV,3,2,12,10,15,048,20,14,19,313,27,16,14,126,04,17,06,271,27*7B
$GPGSV,3,3,12,21,82,033,31,22,01,311,,27,22,071,21,30,31,289,26*75
$GQGSV,2,1,05,02,80,137,33,03,80,175,33,04,14,176,17,07,48,196,21*78
$GQGSV,2,2,05,56,,,36,,,,,,,,,,,,*7B
$GNRMC,062354.00,A,3510.5468,N,13653.2779,E,,88.5,270224,7.9,W,D*2F
$GNVTG,88.5,T,96.4,M,,N,,K,D*36
$GNZDA,062354.00,27,02,2024,,*7D
$L1BAT,4.066*2C
$L1MAG,0.00,0.00,617,617*36
$GPGGA,062355.00,3510.5466,N,13653.2815,E,2,04,7.0,-9.1,M,35.5,M,,*47
$GNGLL,3510.5466,N,13653.2815,E,062355.00,A,D*7F
$GNGSA,A,3,21,194,195,02,,,,,,,,,7.0,7.0,1.0*2D
$GPGSV,3,1,12,02,78,232,32,03,10,169,13,07,40,251,29,08,55,043,*78
$GPGSV,3,2,12,10,15,048,22,14,19,313,26,16,14,126,00,17,06,271,26*7D
$GPGSV,3,3,12,21,82,033,33,22,01,311,,27,22,071,21,30,31,289,24*75
$GQGSV,2,1,05,02,80,137,33,03,80,175,32,04,14,176,22,07,48,196,29*77
$GQGSV,2,2,05,56,,,35,,,,,,,,,,,,*78
$GNRMC,062355.00,A,3510.5466,N,13653.2815,E,,88.3,270224,7.9,W,D*23
$GNVTG,88.3,T,96.2,M,,N,,K,D*36
$GNZDA,062355.00,27,02,2024,,*7C
$L1BAT,4.066*2C
$L1MAG,0.00,0.00,640,640*36
$GPGGA,062356.00,3510.5467,N,13653.2853,E,2,04,7.0,-9.1,M,35.5,M,,*47
$GNGLL,3510.5467,N,13653.2853,E,062356.00,A,D*7F
$GNGSA,A,3,21,194,195,02,,,,,,,,,7.0,7.0,1.0*2D
$GPGSV,3,1,12,02,78,232,33,03,10,169,10,07,40,251,32,08,55,043,*70
$GPGSV,3,2,12,10,15,048,23,14,19,313,23,16,14,126,12,17,06,271,31*7C
$GPGSV,3,3,12,21,82,033,32,22,01,311,,27,22,071,23,30,31,289,25*77
$GQGSV,2,1,05,02,80,137,34,03,80,175,32,04,14,176,19,07,48,196,28*79
$GQGSV,2,2,05,56,,,37,,,,,,,,,,,,*7A
$GNRMC,062356.00,A,3510.5467,N,13653.2853,E,10.9,91.2,270224,7.9,W,D*3C
$GNVTG,91.2,T,99.1,M,10.9,N,20.2,K,D*3B
$GNZDA,062356.00,27,02,2024,,*7F
$L1BAT,4.066*2C
$L1MAG,0.00,0.00,787,787*36
$GPGGA,062357.01,3510.5465,N,13653.2884,E,2,04,7.0,-9.1,M,35.5,M,,*4F
$GNGLL,3510.5465,N,13653.2884,E,062357.01,A,D*77
$GNGSA,A,3,21,194,195,02,,,,,,,,,7.1,7.0,1.0*2C
$GPGSV,3,1,12,02,78,232,29,03,10,169,00,07,40,251,30,08,55,043,*78
$GPGSV,3,2,12,10,15,048,25,14,19,313,23,16,14,126,12,17,06,271,30*7B
$GPGSV,3,3,12,21,82,033,31,22,01,311,,27,22,071,26,30,31,289,25*71
$GQGSV,2,1,05,02,80,137,30,03,80,175,32,04,14,176,17,07,48,196,23*78
$GQGSV,2,2,05,56,,,33,,,,,,,,,,,,*7E
$GNRMC,062357.01,A,3510.5465,N,13653.2884,E,,92.1,270224,7.9,W,D*22
$GNVTG,92.1,T,100.0,M,,N,,K,D*03
$GNZDA,062357.01,27,02,2024,,*7F
$L1BAT,4.066*2C
$L1MAG,0.00,0.00,754,754*36
$GPGGA,062358.00,3510.5466,N,13653.2923,E,2,04,7.0,-9.1,M,35.5,M,,*4E
$GNGLL,3510.5466,N,13653.2923,E,062358.00,A,D*76
$GNGSA,A,3,21,194,195,02,,,,,,,,,7.1,7.0,1.0*2C
$GPGSV,3,1,12,02,78,232,32,03,10,169,10,07,40,251,32,08,55,043,*71
$GPGSV,3,2,12,10,15,048,21,14,19,313,21,16,14,126,13,17,06,271,31*7D
$GPGSV,3,3,12,21,82,033,31,22,01,311,,27,22,071,30,30,31,289,24*77
$GQGSV,2,1,05,02,80,137,35,03,80,175,37,04,14,176,14,07,48,196,24*7C
$GQGSV,2,2,05,56,,,38,,,,,,,,,,,,*75
$GNRMC,062358.00,A,3510.5466,N,13653.2923,E,9.9,86.2,270224,7.9,W,D*0B
$GNVTG,86.2,T,94.1,M,9.9,N,18.3,K,D*02
$GNZDA,062358.00,27,02,2024,,*71
$L1BAT,4.066*2C
$L1MAG,0.00,0.00,730,730*36
$GPGGA,062359.02,3510.5465,N,13653.2963,E,2,04,7.0,-9.1,M,35.5,M,,*4A
$GNGLL,3510.5465,N,13653.2963,E,062359.02,A,D*72
$GNGSA,A,3,21,194,195,02,,,,,,,,,7.0,7.0,1.0*2D
$GPGSV,3,1,12,02,78,232,32,03,10,169,00,07,40,251,31,08,55,043,*73
$GPGSV,3,2,12,10,15,048,18,14,19,313,18,16,14,126,00,17,06,271,28*77
$GPGSV,3,3,12,21,82,033,34,22,01,311,,27,22,071,26,30,31,289,24*75
$GQGSV,2,1,05,02,80,137,33,03,80,175,31,04,14,176,00,07,48,196,26*7B
$GQGSV,2,2,05,56,,,36,,,,,,,,,,,,*7B
$GNRMC,062359.02,A,3510.5465,N,13653.2963,E,11.0,87.4,270224,7.9,W,D*38
$GNVTG,87.4,T,95.3,M,11.0,N,20.4,K,D*3A
$GNZDA,062359.02,27,02,2024,,*72
$L1BAT,4.066*2C
$L1MAG,0.00,0.00,783,783*36
$GPGGA,062400.00,3510.5465,N,13653.3000,E,2,04,7.0,-9.1,M,35.5,M,,*4E
$GNGLL,3510.5465,N,13653.3000,E,062400.00,A,D*76
$GNGSA,A,3,21,194,195,02,,,,,,,,,7.0,7.0,1.0*2D
$GPGSV,3,1,12,02,78,232,33,03,10,169,14,07,40,251,31,08,55,043,*77
$GPGSV,3,2,12,10,15,048,22,14,19,313,16,16,14,126,00,17,06,271,26*7E
$GPGSV,3,3,12,21,82,033,32,22,01,311,,27,22,071,28,30,31,289,23*7A
$GQGSV,2,1,05,02,80,137,34,03,80,175,34,04,14,176,00,07,48,196,13*7F
$GQGSV,2,2,05,56,,,37,,,,,,,,,,,,*7A
$GNRMC,062400.00,A,3510.5465,N,13653.3000,E,9.9,87.5,270224,7.9,W,D*0D
$GNVTG,87.5,T,95.5,M,9.9,N,18.3,K,D*01
$GNZDA,062400.00,27,02,2024,,*7B
$L1BAT,4.066*2C
$L1MAG,0.00,0.00,825,825*36
$GPGGA,062401.01,3510.5464,N,13653.3018,E,2,04,7.0,-9.1,M,35.5,M,,*46
$GNGLL,3510.5464,N,13653.3018,E,062401.01,A,D*7E
$GNGSA,A,3,21,194,195,02,,,,,,,,,7.0,7.0,1.0*2D
$GPGSV,3,1,12,02,78,232,31,03,10,169,12,07,40,251,31,08,55,043,*73
$GPGSV,3,2,12,10,15,048,20,14,19,313,16,16,14,126,00,17,06,271,26*7C
$GPGSV,3,3,12,21,82,033,30,22,01,311,,27,22,071,25,30,31,289,21*77
$GQGSV,2,1,05,02,80,137,34,03,80,175,35,04,14,176,00,07,48,196,16*7B
$GQGSV,2,2,05,56,,,36,,,,,,,,,,,,*7B
$GNRMC,062401.01,A,3510.5464,N,13653.3018,E,8.9,87.1,270224,7.9,W,D*00
$GNVTG,87.1,T,95.0,M,8.9,N,16.5,K,D*09
$GNZDA,062401.01,27,02,2024,,*7B
$L1BAT,4.066*2C
$L1MAG,0.00,0.00,769,769*36
$GPGGA,062402.00,3510.5462,N,13653.3042,E,2,04,7.0,-9.1,M,35.5,M,,*4D
$GNGLL,3510.5462,N,13653.3042,E,062402.00,A,D*75
$GNGSA,A,3,21,194,195,02,,,,,,,,,7.0,7.0,1.0*2D
$GPGSV,3,1,12,02,78,232,34,03,10,169,00,07,40,251,31,08,55,043,*75
$GPGSV,3,2,12,10,15,048,24,14,19,313,14,16,14,126,00,17,06,271,22*7E
$GPGSV,3,3,12,21,82,033,37,22,01,311,,27,22,071,26,30,31,289,25*77
$GQGSV,2,1,05,02,80,137,36,03,80,175,38,04,14,176,24,07,48,196,14*70
$GQGSV,2,2,05,56,,,38,,,,,,,,,,,,*75
$GNRMC,062402.00,A,3510.5462,N,13653.3042,E,6.5,84.0,270224,7.9,W,D*0B
$GNVTG,84.0,T,92.0,M,6.5,N,12.0,K,D*0F
$GNZDA,062402.00,27,02,2024,,*79
$L1BAT,4.066*2C
$L1MAG,0.00,0.00,799,799*36
$GPGGA,062403.01,3510.5461,N,13653.3063,E,2,04,7.0,-9.1,M,35.5,M,,*4D
$GNGLL,3510.5461,N,13653.3063,E,062403.01,A,D*75
$GNGSA,A,3,21,194,195,02,,,,,,,,,7.0,7.0,1.0*2D
$GPGSV,3,1,12,02,78,232,36,03,10,169,00,07,40,251,33,08,55,043,*75
$GPGSV,3,2,12,10,15,048,23,14,19,313,18,16,14,126,00,17,06,271,21*76
$GPGSV,3,3,12,21,82,033,36,22,01,311,,27,22,071,27,30,31,289,26*74
$GQGSV,2,1,05,02,80,137,38,03,80,175,36,04,14,176,29,07,48,196,15*7C
$GQGSV,2,2,05,56,,,41,,,,,,,,,,,,*7B
$GNRMC,062403.01,A,3510.5461,N,13653.3063,E,3.8,80.6,270224,7.9,W,D*01
$GNVTG,80.6,T,88.5,M,3.8,N,7.0,K,D*3F
$GNZDA,062403.01,27,02,2024,,*79
$L1BAT,4.066*2C
$L1MAG,0.00,0.00,780,780*36
$GPGGA,062404.00,3510.5460,N,13653.3079,E,2,04,7.0,-9.1,M,35.5,M,,*41
$GNGLL,3510.5460,N,13653.3079,E,062404.00,A,D*79
$GNGSA,A,3,21,194,195,02,,,,,,,,,7.0,7.0,1.0*2D
$GPGSV,3,1,12,02,78,232,36,03,10,169,00,07,40,251,33,08,55,043,*75
$GPGSV,3,2,12,10,15,048,26,14,19,313,19,16,14,126,07,17,06,271,21*75
$GPGSV,3,3,12,21,82,033,36,22,01,311,,27,22,071,30,30,31,289,30*75
$GQGSV,2,1,05,02,80,137,35,03,80,175,37,04,14,176,27,07,48,196,11*7A
$GQGSV,2,2,05,56,,,37,,,,,,,,,,,,*7A
$GNRMC,062404.00,A,3510.5460,N,13653.3079,E,3.8,80.0,270224,7.9,W,D*0B
$GNVTG,80.0,T,88.0,M,3.8,N,7.0,K,D*3C
$GNZDA,062404.00,27,02,2024,,*7F
$L1BAT,4.066*2C
$L1MAG,0.00,0.00,708,708*36
$GPGGA,062405.01,3510.5461,N,13653.3084,E,2,04,7.0,-9.1,M,35.5,M,,*42
$GNGLL,3510.5461,N,13653.3084,E,062405.01,A,D*7A
$GNGSA,A,3,21,194,195,02,,,,,,,,,7.0,7.0,1.0*2D
$GPGSV,3,1,12,02,78,232,39,03,10,169,14,07,40,251,33,08,55,043,*7F
$GPGSV,3,2,12,10,15,048,24,14,19,313,19,16,14,127,00,17,06,271,27*77
$GPGSV,3,3,12,21,82,033,37,22,01,311,,27,22,071,35,30,31,289,26*76
$GQGSV,2,1,05,02,80,137,33,03,80,175,37,04,14,176,29,07,48,196,19*7A
$GQGSV,2,2,05,56,,,37,,,,,,,,,,,,*7A
$GNRMC,062405.01,A,3510.5461,N,13653.3084,E,1.3,74.9,270224,7.9,W,D*03
$GNVTG,74.9,T,82.8,M,1.3,N,2.3,K,D*33
$GNZDA,062405.01,27,02,2024,,*7F
$L1BAT,4.066*2C
$L1MAG,0.00,0.00,703,703*36
$GPGGA,062406.00,3510.5460,N,13653.3088,E,2,04,7.0,-9.1,M,35.5,M,,*4D
$GNGLL,3510.5460,N,13653.3088,E,062406.00,A,D*75
$GNGSA,A,3,21,194,195,02,,,,,,,,,7.0,7.0,1.0*2D
$GPGSV,3,1,12,02,78,232,34,03,10,169,00,07,40,251,37,08,55,043,*73
$GPGSV,3,2,12,10,15,048,19,14,19,313,18,16,14,127,11,17,06,271,27*78
$GPGSV,3,3,12,21,82,033,35,22,01,311,,27,22,071,32,30,31,289,25*70
$GQGSV,2,1,05,02,80,137,31,03,80,175,30,04,14,176,29,07,48,196,21*74
$GQGSV,2,2,05,56,,,32,,,,,,,,,,,,*7F
$GNRMC,062406.00,A,3510.5460,N,13653.3088,E,1.3,50.6,270224,7.9,W,D*05
$GNVTG,50.6,T,58.5,M,1.3,N,2.3,K,D*30
$GNZDA,062406.00,27,02,2024,,*7D
$L1BAT,4.066*2C
$L1MAG,0.00,0.00,704,704*36
$GPGGA,062407.00,3510.5449,N,13653.3100,E,2,04,7.0,-9.1,M,35.5,M,,*46
$GNGLL,3510.5449,N,13653.3100,E,062407.00,A,D*7E
$GNGSA,A,3,21,194,195,02,,,,,,,,,7.0,7.0,1.0*2D
$GPGSV,3,1,12,02,78,232,34,03,10,169,13,07,40,251,33,08,55,043,*75
$GPGSV,3,2,12,10,15,048,22,14,19,313,23,16,14,127,11,17,06,271,26*79
$GPGSV,3,3,12,21,82,033,34,22,01,311,,27,22,071,28,30,31,289,29*76
$GQGSV,2,1,05,02,80,137,29,03,80,175,29,04,14,176,33,07,48,196,15*79
$GQGSV,2,2,05,56,,,33,,,,,,,,,,,,*7E
$GNRMC,062407.00,A,3510.5449,N,13653.3100,E,1.2,66.6,270224,7.9,W,D*0A
$GNVTG,66.6,T,74.5,M,1.2,N,2.1,K,D*38
$GNZDA,062407.00,27,02,2024,,*7C
$L1BAT,4.068*22
$L1MAG,0.00,0.00,727,727*36
$GPGGA,062408.00,3510.5445,N,13653.3109,E,2,04,7.0,-9.1,M,35.5,M,,*4C
$GNGLL,3510.5445,N,13653.3109,E,062408.00,A,D*74
$GNGSA,A,3,21,194,195,02,,,,,,,,,7.0,7.0,1.0*2D
$GPGSV,3,1,12,02,78,232,35,03,10,169,10,07,40,251,31,08,55,043,*75
$GPGSV,3,2,12,10,15,048,24,14,19,313,20,16,14,127,17,17,06,271,22*7E
$GPGSV,3,3,12,21,82,033,33,22,01,311,,27,22,071,27,30,31,289,25*72
$GQGSV,2,1,05,02,80,137,32,03,80,175,35,04,14,176,33,07,48,196,13*78
$GQGSV,2,2,05,56,,,34,,,,,,,,,,,,*79
$GNRMC,062408.00,A,3510.5445,N,13653.3109,E,1.5,70.9,270224,7.9,W,D*0F
$GNVTG,70.9,T,78.8,M,1.5,N,2.7,K,D*30
$GNZDA,062408.00,27,02,2024,,*73
$L1BAT,4.068*22
$L1MAG,0.00,0.00,714,714*36
$GPGGA,062409.00,3510.5444,N,13653.3114,E,2,04,7.0,-9.1,M,35.5,M,,*40
$GNGLL,3510.5444,N,13653.3114,E,062409.00,A,D*78
$GNGSA,A,3,21,194,195,02,,,,,,,,,7.0,7.0,1.0*2D
$GPGSV,3,1,12,02,78,232,38,03,10,169,00,07,40,251,36,08,55,043,*7E
$GPGSV,3,2,12,10,15,048,28,14,19,313,21,16,14,127,15,17,06,271,23*70
$GPGSV,3,3,12,21,82,033,35,22,01,311,,27,22,071,28,30,31,289,23*7D
$GQGSV,2,1,05,02,80,137,38,03,80,175,37,04,14,176,30,07,48,196,17*77
$GQGSV,2,2,05,56,,,40,,,,,,,,,,,,*7A
$GNRMC,062409.00,A,3510.5444,N,13653.3114,E,2.0,65.3,270224,7.9,W,D*0B
$GNVTG,65.3,T,73.2,M,2.0,N,3.7,K,D*38
$GNZDA,062409.00,27,02,2024,,*72
$L1BAT,4.068*22
$L1MAG,0.00,0.00,710,710*36
$GPGGA,062410.01,3510.5445,N,13653.3121,E,2,04,7.0,-9.1,M,35.5,M,,*4E
$GNGLL,3510.5445,N,13653.3121,E,062410.01,A,D*76
$GNGSA,A,3,21,194,195,02,,,,,,,,,7.0,7.0,1.0*2D
$GPGSV,3,1,12,02,78,232,35,03,10,169,00,07,40,251,30,08,55,043,*75
$GPGSV,3,2,12,10,15,048,27,14,19,313,22,16,14,127,17,17,06,271,16*78
$GPGSV,3,3,12,21,82,033,36,22,01,311,,27,22,071,25,30,31,289,24*74
$GQGSV,2,1,05,02,80,137,36,03,80,175,35,04,14,176,24,07,48,196,19*70
$GQGSV,2,2,05,56,,,35,,,,,,,,,,,,*78
$GNRMC,062410.01,A,3510.5445,N,13653.3121,E,1.7,65.4,270224,7.9,W,D*06
$GNVTG,65.4,T,73.4,M,1.7,N,3.1,K,D*3B
$GNZDA,062410.01,27,02,2024,,*7B
$L1BAT,4.068*22
$L1MAG,0.00,0.00,569,569*36
$GPGGA,062411.00,3510.5453,N,13653.3129,E,2,04,7.0,-9.1,M,35.5,M,,*41
$GNGLL,3510.5453,N,13653.3129,E,062411.00,A,D*79
$GNGSA,A,3,21,194,195,02,,,,,,,,,7.0,7.0,1.0*2D
$GPGSV,3,1,12,02,78,232,34,03,10,169,11,07,40,251,26,08,55,043,*73
$GPGSV,3,2,12,10,15,048,25,14,19,313,22,16,14,127,15,17,06,271,17*79
$GPGSV,3,3,12,21,82,033,38,22,01,311,,27,22,071,25,30,31,289,22*7C
$GQGSV,2,1,05,02,80,137,35,03,80,175,35,04,14,176,26,07,48,196,22*79
$GQGSV,2,2,05,56,,,37,,,,,,,,,,,,*7A
$GNRMC,062411.00,A,3510.5453,N,13653.3129,E,2.0,50.6,270224,7.9,W,D*09
$GNVTG,50.6,T,58.5,M,2.0,N,3.7,K,D*35
$GNZDA,062411.00,27,02,2024,,*7B
$L1BAT,4.068*22
$L1MAG,0.00,0.00,581,581*36
$GPGGA,062412.00,3510.5462,N,13653.3130,E,2,04,7.0,-9.1,M,35.5,M,,*48
$GNGLL,3510.5462,N,13653.3130,E,062412.00,A,D*70
$GNGSA,A,3,21,194,195,02,,,,,,,,,7.0,7.0,1.0*2D
$GPGSV,3,1,12,02,78,232,34,03,10,169,18,07,40,251,27,08,55,043,*7B
$GPGSV,3,2,12,10,15,048,24,14,19,313,20,16,14,127,13,17,06,271,14*7F
$GPGSV,3,3,12,21,82,033,38,22,01,311,,27,22,071,26,30,31,289,22*7F
$GQGSV,2,1,05,02,80,137,35,03,80,175,34,04,14,176,23,07,48,196,17*7B
$GQGSV,2,2,05,56,,,36,,,,,,,,,,,,*7B
$GNRMC,062412.00,A,3510.5462,N,13653.3130,E,3.9,21.3,270224,7.9,W,D*0B
$GNVTG,21.3,T,29.2,M,3.9,N,7.2,K,D*3E
$GNZDA,062412.00,27,02,2024,,*78
$L1BAT,4.068*22
$L1MAG,0.00,0.00,584,584*36
$GPGGA,062413.00,3510.5474,N,13653.3133,E,2,04,7.0,-9.1,M,35.5,M,,*4D
$GNGLL,3510.5474,N,13653.3133,E,062413.00,A,D*75
$GNGSA,A,3,21,194,195,02,,,,,,,,,7.0,7.0,1.0*2D
$GPGSV,3,1,12,02,78,232,32,03,10,168,18,07,40,251,25,08,55,043,*7E
$GPGSV,3,2,12,10,15,047,21,14,19,313,20,16,14,127,15,17,06,271,07*71
$GPGSV,3,3,12,21,82,033,36,22,01,311,,27,22,071,26,30,31,289,20*73
$GQGSV,2,1,05,02,80,137,33,03,80,175,34,04,14,176,21,07,48,196,13*7B
$GQGSV,2,2,05,56,,,33,,,,,,,,,,,,*7E
$GNRMC,062413.00,A,3510.5474,N,13653.3133,E,5.0,11.5,270224,7.9,W,D*04
$GNVTG,11.5,T,19.5,M,5.0,N,9.3,K,D*3F
$GNZDA,062413.00,27,02,2024,,*79
$L1BAT,4.068*22
$L1MAG,0.00,0.00,563,563*36
$GPGGA,062414.00,3510.5484,N,13653.3133,E,2,04,7.0,-9.2,M,35.5,M,,*46
$GNGLL,3510.5484,N,13653.3133,E,062414.00,A,D*7D
$GNGSA,A,3,21,194,195,02,,,,,,,,,7.0,7.0,1.0*2D
$GPGSV,3,1,12,02,78,232,31,03,10,168,15,07,40,251,25,08,55,043,*70
$GPGSV,3,2,12,10,15,047,19,14,19,313,22,16,14,127,16,17,06,271,00*7C
$GPGSV,3,3,12,21,82,033,33,22,01,311,,27,22,071,27,30,31,289,20*77
$GQGSV,2,1,05,02,80,137,31,03,80,175,34,04,14,176,16,07,48,196,13*7D
$GQGSV,2,2,05,56,,,33,,,,,,,,,,,,*7E
$GNRMC,062414.00,A,3510.5484,N,13653.3133,E,,8.5,270224,7.9,W,D*1F
$GNVTG,8.5,T,16.5,M,,N,,K,D*07
$GNZDA,062414.00,27,02,2024,,*7E
$L1BAT,4.068*22
$L1MAG,0.00,0.00,461,461*36
$GPGGA,062415.01,3510.5497,N,13653.3136,E,2,04,7.0,-9.2,M,35.5,M,,*41
$GNGLL,3510.5497,N,13653.3136,E,062415.01,A,D*7A
$GNGSA,A,3,21,194,195,02,,,,,,,,,7.0,7.0,1.0*2D
$GPGSV,3,1,12,02,78,232,30,03,10,168,00,07,40,251,27,08,55,043,*77
$GPGSV,3,2,12,10,15,047,18,14,19,313,23,16,14,127,15,17,06,271,00*7F
$GPGSV,3,3,12,21,82,033,29,22,01,311,,27,22,071,27,30,31,289,17*78
$GQGSV,2,1,05,02,80,137,30,03,80,175,31,04,14,176,14,07,48,196,15*7D
$GQGSV,2,2,05,56,,,31,,,,,,,,,,,,*7C
$GNRMC,062415.01,A,3510.5497,N,13653.3136,E,5.0,5.9,270224,7.9,W,D*32
$GNVTG,5.9,T,13.8,M,5.0,N,9.3,K,D*01
$GNZDA,062415.01,27,02,2024,,*7E
$L1BAT,4.068*22
$L1MAG,0.00,0.00,420,420*36
$GPGGA,062416.00,3510.5509,N,13653.3137,E,2,04,7.0,-9.2,M,35.5,M,,*44
$GNGLL,3510.5509,N,13653.3137,E,062416.00,A,D*7F
$GNGSA,A,3,21,194,195,02,,,,,,,,,7.0,7.0,1.0*2D
$GPGSV,3,1,12,02,78,232,32,03,10,168,11,07,40,251,29,08,55,043,*7B
$GPGSV,3,2,12,10,15,047,19,14,19,313,23,16,14,127,16,17,06,271,00*7D
$GPGSV,3,3,12,21,82,033,29,22,01,311,,27,22,071,25,30,31,289,19*74
$GQGSV,2,1,05,02,80,137,30,03,80,175,29,04,14,176,20,07,48,196,19*7F
$GQGSV,2,2,05,56,,,29,,,,,,,,,,,,*75
$GNRMC,062416.00,A,3510.5509,N,13653.3137,E,,5.1,270224,7.9,W,D*14
$GNVTG,5.1,T,13.0,M,,N,,K,D*0E
$GNZDA,062416.00,27,02,2024,,*7C
$L1BAT,4.068*22
$L1MAG,0.00,0.00,388,388*36
$GPGGA,062417.03,3510.5525,N,13653.3143,E,2,04,7.0,-9.2,M,35.5,M,,*4B
$GNGLL,3510.5525,N,13653.3143,E,062417.03,A,D*70
$GNGSA,A,3,21,194,195,02,,,,,,,,,7.0,7.0,1.0*2D
$GPGSV,3,1,12,02,78,232,34,03,10,168,00,07,40,251,27,08,55,043,*73
$GPGSV,3,2,12,10,15,047,19,14,20,313,25,16,14,127,18,17,06,271,00*7F
$GPGSV,3,3,12,21,82,033,35,22,01,311,,27,22,071,26,30,31,289,21*71
$GQGSV,2,1,05,02,80,137,33,03,80,175,33,04,14,176,20,07,48,196,16*78
$GQGSV,2,2,05,56,,,35,,,,,,,,,,,,*78
$GNRMC,062417.03,A,3510.5525,N,13653.3143,E,5.0,7.1,270224,7.9,W,D*32
$GNVTG,7.1,T,15.0,M,5.0,N,9.3,K,D*05
$GNZDA,062417.03,27,02,2024,,*7E
$L1BAT,4.068*22
$L1MAG,0.00,0.00,395,395*36
$GPGGA,062418.03,3510.5549,N,13653.3147,E,2,04,7.0,-9.2,M,35.5,M,,*4A
$GNGLL,3510.5549,N,13653.3147,E,062418.03,A,D*71
$GNGSA,A,3,21,194,195,02,,,,,,,,,7.0,7.0,1.0*2D
$GPGSV,3,1,12,02,78,232,31,03,10,168,00,07,40,251,29,08,55,043,*78
$GPGSV,3,2,12,10,15,047,18,14,20,313,23,16,14,127,17,17,06,271,00*77
$GPGSV,3,3,12,21,82,033,38,22,01,311,,27,22,071,25,30,31,289,22*7C
$GQGSV,2,1,05,02,80,137,35,03,80,175,33,04,14,176,19,07,48,196,18*7A
$GQGSV,2,2,05,56,,,36,,,,,,,,,,,,*7B
$GNRMC,062418.03,A,3510.5549,N,13653.3147,E,8.6,7.4,270224,7.9,W,D*3D
$GNVTG,7.4,T,15.4,M,8.6,N,16.0,K,D*32
$GNZDA,062418.03,27,02,2024,,*71
$L1BAT,4.068*22
$L1MAG,0.00,0.00,431,431*36
$GPGGA,062419.00,3510.5571,N,13653.3146,E,2,04,6.9,-9.2,M,35.5,M,,*4A
$GNGLL,3510.5571,N,13653.3146,E,062419.00,A,D*79
$GNGSA,A,3,21,194,195,02,,,,,,,,,7.0,6.9,1.0*25
$GPGSV,3,1,12,02,78,232,33,03,10,168,13,07,40,251,25,08,55,043,*74
$GPGSV,3,2,12,10,15,047,21,14,20,313,24,16,14,127,12,17,06,271,00*7F
$GPGSV,3,3,12,21,82,033,37,22,01,311,,27,22,071,25,30,31,289,25*74
$GQGSV,2,1,05,02,80,137,33,03,80,175,33,04,14,176,13,07,48,196,21*7C
$GQGSV,2,2,05,56,,,35,,,,,,,,,,,,*78
$GNRMC,062419.00,A,3510.5571,N,13653.3146,E,9.3,5.0,270224,7.9,W,D*37
$GNVTG,5.0,T,12.9,M,9.3,N,17.3,K,D*38
$GNZDA,062419.00,27,02,2024,,*73
$L1BAT,4.068*22
$L1MAG,0.00,0.00,433,433*36
$GPGGA,062420.00,3510.5599,N,13653.3144,E,2,04,6.9,-9.2,M,35.5,M,,*44
$GNGLL,3510.5599,N,13653.3144,E,062420.00,A,D*77
$GNGSA,A,3,21,194,195,02,,,,,,,,,7.0,6.9,1.0*25
$GPGSV,3,1,12,02,78,232,33,03,10,168,11,07,40,251,25,08,55,043,*76
$GPGSV,3,2,12,10,15,047,20,14,20,313,24,16,14,127,00,17,06,271,00*7D
$GPGSV,3,3,12,21,82,033,31,22,01,311,,27,22,071,28,30,31,289,28*72
$GQGSV,2,1,05,02,80,137,31,03,80,175,31,04,14,176,16,07,48,196,17*7C
$GQGSV,2,2,05,56,,,32,,,,,,,,,,,,*7F
$GNRMC,062420.00,A,3510.5599,N,13653.3144,E,,4.1,270224,7.9,W,D*1D
$GNVTG,4.1,T,12.1,M,,N,,K,D*0F
$GNZDA,062420.00,27,02,2024,,*79
$L1BAT,4.068*22
$L1MAG,0.00,0.00,456,456*36
$GPGGA,062421.01,3510.5633,N,13653.3141,E,2,04,6.9,-9.2,M,35.5,M,,*42
$GNGLL,3510.5633,N,13653.3141,E,062421.01,A,D*71
$GNGSA,A,3,21,194,195,02,,,,,,,,,7.0,6.9,1.0*25
$GPGSV,3,1,12,02,78,232,34,03,10,168,00,07,40,251,22,08,55,043,*76
$GPGSV,3,2,12,10,15,047,17,14,20,313,23,16,14,127,00,17,06,271,00*7E
$GPGSV,3,3,12,21,82,033,33,22,01,311,,27,22,071,33,30,31,289,35*76
$GQGSV,2,1,05,02,80,137,33,03,80,175,32,04,14,176,17,07,48,196,22*7A
$GQGSV,2,2,05,56,,,34,,,,,,,,,,,,*79
$GNRMC,062421.01,A,3510.5633,N,13653.3141,E,9.4,358.3,270224,7.9,W,D*30
$GNVTG,358.3,T,366.3,M,9.4,N,17.4,K,D*0A
$GNZDA,062421.01,27,02,2024,,*79
$L1BAT,4.068*22
$L1MAG,0.00,0.00,397,397*36
$GPGGA,062422.00,3510.5662,N,13653.3141,E,1,06,4.9,-9.0,M,35.5,M,,*45
$GNGLL,3510.5662,N,13653.3141,E,062422.00,A,A*72
$GNGSA,A,3,10,21,27,194,195,02,,,,,,,7.6,4.9,5.7*26
$GPGSV,3,1,12,02,78,232,34,03,10,168,04,07,40,251,31,08,55,043,*70
$GPGSV,3,2,12,10,15,047,14,14,20,313,26,16,14,127,12,17,06,271,00*7B
$GPGSV,3,3,12,21,82,033,31,22,01,311,,27,22,071,28,30,31,289,28*72
$GQGSV,2,1,05,02,80,137,31,03,80,175,32,04,14,176,19,07,48,196,24*70
$GQGSV,2,2,05,57,,,33,,,,,,,,,,,,*7F
$GNRMC,062422.00,A,3510.5662,N,13653.3141,E,,356.7,270224,7.9,W,A*1A
$GNVTG,356.7,T,364.6,M,,N,,K,A*3D
$GNZDA,062422.00,27,02,2024,,*7B
$L1BAT,4.068*22
$L1MAG,0.00,0.00,380,380*36
$GPGGA,062423.00,3510.5692,N,13653.3139,E,1,06,4.9,-8.6,M,35.5,M,,*43
$GNGLL,3510.5692,N,13653.3139,E,062423.00,A,A*73
$GNGSA,A,3,10,21,27,194,195,02,,,,,,,7.6,4.9,5.7*26
$GPGSV,3,1,12,02,78,232,34,03,10,168,00,07,40,251,27,08,55,043,*73
$GPGSV,3,2,12,10,15,047,15,14,20,313,30,16,14,127,18,17,06,271,00*77
$GPGSV,3,3,12,21,82,033,35,22,01,311,,27,22,071,23,30,31,289,25*70
$GQGSV,2,1,05,02,80,137,34,03,80,175,33,04,14,176,21,07,48,196,22*79
$GQGSV,2,2,05,57,,,30,,,,,,,,,,,,*7C
$GNRMC,062423.00,A,3510.5692,N,13653.3139,E,9.7,359.3,270224,7.9,W,A*30
$GNVTG,359.3,T,367.2,M,9.7,N,18.0,K,A*06
$GNZDA,062423.00,27,02,2024,,*7A
$L1BAT,4.068*22
$L1MAG,0.00,0.00,344,344*36
$GPGGA,062424.00,3510.5717,N,13653.3140,E,1,06,4.9,-8.1,M,35.5,M,,*41
$GNGLL,3510.5717,N,13653.3140,E,062424.00,A,A*76
$GNGSA,A,3,10,21,27,194,195,02,,,,,,,7.6,4.9,5.7*26
$GPGSV,3,1,12,02,78,232,33,03,10,168,00,07,40,251,26,08,55,043,*75
$GPGSV,3,2,12,10,15,047,18,14,20,313,29,16,14,127,26,17,06,271,00*7F
$GPGSV,3,3,12,21,82,033,35,22,01,311,,27,22,071,20,30,31,289,27*71
$GQGSV,2,1,05,02,80,137,34,03,80,175,33,04,14,176,20,07,48,196,21*7B
$GQGSV,2,2,05,57,,,32,,,,,,,,,,,,*7E
$GNRMC,062424.00,A,3510.5717,N,13653.3140,E,10.0,0.2,270224,7.9,W,A*04
$GNVTG,0.2,T,8.1,M,10.0,N,18.5,K,A*3B
$GNZDA,062424.00,27,02,2024,,*7D
$L1BAT,4.068*22
$L1MAG,0.00,0.00,387,387*36
$GPGGA,062425.00,3510.5744,N,13653.3140,E,1,06,4.9,-7.2,M,35.5,M,,*4A
$GNGLL,3510.5744,N,13653.3140,E,062425.00,A,A*71
$GNGSA,A,3,10,21,27,194,195,02,,,,,,,7.6,4.9,5.7*26
$GPGSV,3,1,12,02,78,233,32,03,10,168,12,07,40,251,30,08,55,043,*71
$GPGSV,3,2,12,10,15,047,25,14,20,313,30,16,14,127,28,17,06,271,00*77
$GPGSV,3,3,12,21,82,033,36,22,01,311,,27,22,071,18,30,31,289,32*7D
$GQGSV,2,1,05,02,80,137,35,03,80,175,34,04,14,176,21,07,48,196,21*7C
$GQGSV,2,2,05,57,,,30,,,,,,,,,,,,*7C
$GNRMC,062425.00,A,3510.5744,N,13653.3140,E,9.3,358.0,270224,7.9,W,A*34
$GNVTG,358.0,T,365.9,M,9.3,N,17.3,K,A*05
$GNZDA,062425.00,27,02,2024,,*7C
$L1BAT,4.068*22
$L1MAG,0.00,0.00,414,414*36
$GPGGA,062426.00,3510.5771,N,13653.3132,E,1,06,4.9,-6.3,M,35.5,M,,*4A
$GNGLL,3510.5771,N,13653.3132,E,062426.00,A,A*71
$GNGSA,A,3,10,21,27,194,195,02,,,,,,,7.6,4.9,5.7*26
$GPGSV,3,1,12,02,78,233,32,03,10,168,09,07,40,251,32,08,55,043,*79
$GPGSV,3,2,12,10,15,047,24,14,20,313,27,16,14,127,18,17,06,271,00*73
$GPGSV,3,3,12,21,82,033,34,22,01,311,,27,22,071,20,30,31,289,34*72
$GQGSV,2,1,05,02,80,137,34,03,80,175,31,04,14,176,22,07,48,196,21*7B
$GQGSV,2,2,05,57,,,29,,,,,,,,,,,,*74
$GNRMC,062426.00,A,3510.5771,N,13653.3132,E,9.4,354.8,270224,7.9,W,A*37
$GNVTG,354.8,T,362.7,M,9.4,N,17.4,K,A*08
$GNZDA,062426.00,27,02,2024,,*7F
$L1BAT,4.068*22
$L1MAG,0.00,0.00,416,416*36
$GPGGA,062427.01,3510.5801,N,13653.3132,E,1,06,4.9,-5.5,M,35.5,M,,*47
$GNGLL,3510.5801,N,13653.3132,E,062427.01,A,A*79
$GNGSA,A,3,10,21,27,194,195,02,,,,,,,7.6,4.9,5.7*26
$GPGSV,3,1,12,02,78,233,31,03,10,168,00,07,40,251,36,08,55,043,*77
$GPGSV,3,2,12,10,15,047,21,14,20,313,28,16,14,127,19,17,06,271,23*79
$GPGSV,3,3,12,21,82,033,30,22,01,311,,27,22,071,24,30,31,289,29*7E
$GQGSV,2,1,05,02,80,137,30,03,80,175,29,04,14,176,23,07,48,196,20*76
$GQGSV,2,2,05,57,,,27,,,,,,,,,,,,*7A
$GNRMC,062427.01,A,3510.5801,N,13653.3132,E,9.6,357.3,270224,7.9,W,A*35
$GNVTG,357.3,T,365.3,M,9.6,N,17.8,K,A*0D
$GNZDA,062427.01,27,02,2024,,*7F
$L1BAT,4.068*22
$L1MAG,0.00,0.00,471,471*36
$GPGGA,062428.00,3510.5828,N,13653.3132,E,1,06,4.9,-4.9,M,35.5,M,,*4F
$GNGLL,3510.5828,N,13653.3132,E,062428.00,A,A*7C
$GNGSA,A,3,10,21,27,194,195,02,,,,,,,7.6,4.9,5.7*26
$GPGSV,3,1,12,02,78,233,30,03,10,168,12,07,40,250,32,08,55,043,*70
$GPGSV,3,2,12,10,15,047,17,14,20,313,25,16,14,127,15,17,06,271,21*7F
$GPGSV,3,3,12,21,82,033,35,22,01,311,,27,22,071,18,30,31,289,36*7A
$GQGSV,2,1,05,02,80,137,33,03,80,175,33,04,14,176,22,07,48,196,22*7D
$GQGSV,2,2,05,57,,,34,,,,,,,,,,,,*78
$GNRMC,062428.00,A,3510.5828,N,13653.3132,E,9.7,358.7,270224,7.9,W,A*3A
$GNVTG,358.7,T,366.7,M,9.7,N,18.0,K,A*07
$GNZDA,062428.00,27,02,2024,,*71
$L1BAT,4.068*22
$L1MAG,0.00,0.00,384,384*36
$GPGGA,062429.00,3510.5852,N,13653.3134,E,1,06,4.9,-4.3,M,35.5,M,,*4F
$GNGLL,3510.5852,N,13653.3134,E,062429.00,A,A*76
$GNGSA,A,3,10,21,27,194,195,02,,,,,,,7.6,4.9,5.7*26
$GPGSV,3,1,12,02,78,233,31,03,10,168,11,07,40,250,35,08,55,043,*75
$GPGSV,3,2,12,10,15,047,17,14,20,313,24,16,14,127,16,17,06,271,22*7E
$GPGSV,3,3,12,21,82,033,36,22,01,311,,27,22,071,19,30,31,289,34*7A
