$GNRMC,062259.00,A,3510.5492,N,13653.1877,E,0.8,350.3,270224,7.9,W,D*32
$GNRMC,062300.00,A,3510.5492,N,13653.1877,E,1.1,13.3,270224,7.9,W,D*03
$GNRMC,062301.00,A,3510.5492,N,13653.1877,E,1.1,359.1,270224,7.9,W,D*3D
$GNRMC,062302.00,A,3510.5492,N,13653.1877,E,1.1,24.9,270224,7.9,W,D*0F
$GNRMC,062303.00,A,3510.5492,N,13653.1877,E,1.1,24.9,270224,7.9,W,D*0E
$GNRMC,062304.00,A,3510.5492,N,13653.1877,E,1.1,24.9,270224,7.9,W,D*09
$GNRMC,062305.00,A,3510.5492,N,13653.1877,E,1.1,354.0,270224,7.9,W,D*35
$GNRMC,062306.00,A,3510.5492,N,13653.1877,E,1.1,354.0,270224,7.9,W,D*36
$GNRMC,062307.00,A,3510.5492,N,13653.1877,E,0.8,23.0,270224,7.9,W,D*0C
$GNRMC,062308.01,A,3510.5492,N,13653.1877,E,1.1,342.9,270224,7.9,W,D*37
$GNRMC,062309.00,A,3510.5492,N,13653.1876,E,1.3,342.9,270224,7.9,W,D*34
$GNRMC,062310.00,A,3510.5492,N,13653.1876,E,2.6,342.9,270224,7.9,W,D*3A
$GNRMC,062311.00,A,3510.5492,N,13653.1876,E,2.6,161.3,270224,7.9,W,D*32
$GNRMC,062312.00,A,3510.5492,N,13653.1876,E,,160.5,270224,7.9,W,D*1C
$GNRMC,062313.00,A,3510.5492,N,13653.1876,E,2.6,160.5,270224,7.9,W,D*37
$GNRMC,062314.01,A,3510.5499,N,13653.1855,E,2.4,160.5,270224,7.9,W,D*39
$GNRMC,062315.00,A,3510.5492,N,13653.1859,E,2.4,120.7,270224,7.9,W,D*38
$GNRMC,062316.00,A,3510.5482,N,13653.1867,E,2.4,140.0,270224,7.9,W,D*36
$GNRMC,062317.00,A,3510.5477,N,13653.1872,E,2.5,158.5,270224,7.9,W,D*34
$GNRMC,062318.00,A,3510.5472,N,13653.1879,E,2.5,157.6,270224,7.9,W,D*39
$GNRMC,062319.00,A,3510.5466,N,13653.1893,E,2.6,145.7,270224,7.9,W,D*38
$GNRMC,062320.00,A,3510.5467,N,13653.1909,E,3.8,120.2,270224,7.9,W,D*38
$GNRMC,062321.00,A,3510.5463,N,13653.1927,E,5.9,110.2,270224,7.9,W,D*35
$GNRMC,062322.00,A,3510.5460,N,13653.1944,E,9.8,106.4,270224,7.9,W,D*3C
$GNRMC,062323.01,A,3510.5459,N,13653.1983,E,9.8,96.7,270224,7.9,W,D*06
$GNRMC,062324.00,A,3510.5458,N,13653.2005,E,8.7,93.7,270224,7.9,W,D*0E
$GNRMC,062325.00,A,3510.5459,N,13653.2023,E,7.2,91.1,270224,7.9,W,D*04
$GNRMC,062326.00,A,3510.5462,N,13653.2033,E,3.3,88.5,270224,7.9,W,D*07
$GNRMC,062327.00,A,3510.5459,N,13653.2044,E,3.8,90.0,270224,7.9,W,D*09
$GNRMC,062328.00,A,3510.5462,N,13653.2054,E,3.8,81.0,270224,7.9,W,D*0F
$GNRMC,062329.00,A,3510.5464,N,13653.2068,E,,78.4,270224,7.9,W,D*20
$GNRMC,062330.00,A,3510.5464,N,13653.2087,E,3.8,79.8,270224,7.9,W,D*01
$GNRMC,062331.00,A,3510.5462,N,13653.2104,E,5.2,83.1,270224,7.9,W,D*0C
$GNRMC,062332.00,A,3510.5458,N,13653.2127,E,5.2,85.1,270224,7.9,W,D*01
$GNRMC,062333.00,A,3510.5457,N,13653.2157,E,7.6,88.1,270224,7.9,W,D*03
$GNRMC,062334.00,A,3510.5457,N,13653.2184,E,,89.0,270224,7.9,W,D*25
$GNRMC,062335.00,A,3510.5464,N,13653.2219,E,8.9,86.2,270224,7.9,W,D*01
$GNRMC,062336.00,A,3510.5465,N,13653.2245,E,9.2,85.8,270224,7.9,W,D*09
$GNRMC,062337.00,A,3510.5465,N,13653.2278,E,,85.7,270224,7.9,W,D*2C
$GNRMC,062338.00,A,3510.5466,N,13653.2321,E,,85.9,270224,7.9,W,D*23
$GNRMC,062339.03,A,3510.5466,N,13653.2354,E,9.2,93.1,270224,7.9,W,D*09
$GNRMC,062340.01,A,3510.5466,N,13653.2381,E,7.2,95.4,270224,7.9,W,D*00
$GNRMC,062341.01,A,3510.5465,N,13653.2405,E,7.2,96.4,270224,7.9,W,D*0A
$GNRMC,062342.00,A,3510.5463,N,13653.2432,E,7.2,93.9,270224,7.9,W,D*02
$GNRMC,062343.00,A,3510.5457,N,13653.2455,E,6.2,95.4,270224,7.9,W,D*0F
$GNRMC,062344.00,A,3510.5458,N,13653.2476,E,,95.8,270224,7.9,W,D*20
$GNRMC,062345.00,A,3510.5456,N,13653.2500,E,,95.8,270224,7.9,W,D*2F
$GNRMC,062346.00,A,3510.5459,N,13653.2520,E,5.5,99.2,270224,7.9,W,D*09
$GNRMC,062347.00,A,3510.5461,N,13653.2544,E,5.5,92.3,270224,7.9,W,D*0B
$GNRMC,062348.00,A,3510.5464,N,13653.2568,E,,90.1,270224,7.9,W,D*21
$GNRMC,062349.00,A,3510.5467,N,13653.2603,E,,89.3,270224,7.9,W,D*27
$GNRMC,062350.02,A,3510.5465,N,13653.2635,E,8.6,95.2,270224,7.9,W,D*06
$GNRMC,062351.01,A,3510.5466,N,13653.2671,E,8.7,94.5,270224,7.9,W,D*00
$GNRMC,062352.00,A,3510.5466,N,13653.2697,E,,94.3,270224,7.9,W,D*2D
$GNRMC,062353.04,A,3510.5467,N,13653.2741,E,9.8,89.8,270224,7.9,W,D*0B
$GNRMC,062354.00,A,3510.5468,N,13653.2779,E,,88.5,270224,7.9,W,D*2F
$GNRMC,062355.00,A,3510.5466,N,13653.2815,E,,88.3,270224,7.9,W,D*23
$GNRMC,062356.00,A,3510.5467,N,13653.2853,E,10.9,91.2,270224,7.9,W,D*3C
$GNRMC,062357.01,A,3510.5465,N,13653.2884,E,,92.1,270224,7.9,W,D*22
$GNRMC,062358.00,A,3510.5466,N,13653.2923,E,9.9,86.2,270224,7.9,W,D*0B
$GNRMC,062359.02,A,3510.5465,N,13653.2963,E,11.0,87.4,270224,7.9,W,D*38
$GNRMC,062400.00,A,3510.5465,N,13653.3000,E,9.9,87.5,270224,7.9,W,D*0D
$GNRMC,062401.01,A,3510.5464,N,13653.3018,E,8.9,87.1,270224,7.9,W,D*00
$GNRMC,062402.00,A,3510.5462,N,13653.3042,E,6.5,84.0,270224,7.9,W,D*0B
$GNRMC,062403.01,A,3510.5461,N,13653.3063,E,3.8,80.6,270224,7.9,W,D*01
$GNRMC,062404.00,A,3510.5460,N,13653.3079,E,3.8,80.0,270224,7.9,W,D*0B
$GNRMC,062405.01,A,3510.5461,N,13653.3084,E,1.3,74.9,270224,7.9,W,D*03
$GNRMC,062406.00,A,3510.5460,N,13653.3088,E,1.3,50.6,270224,7.9,W,D*05
$GNRMC,062407.00,A,3510.5449,N,13653.3100,E,1.2,66.6,270224,7.9,W,D*0A
$GNRMC,062408.00,A,3510.5445,N,13653.3109,E,1.5,70.9,270224,7.9,W,D*0F
$GNRMC,062409.00,A,3510.5444,N,13653.3114,E,2.0,65.3,270224,7.9,W,D*0B
$GNRMC,062410.01,A,3510.5445,N,13653.3121,E,1.7,65.4,270224,7.9,W,D*06
$GNRMC,062411.00,A,3510.5453,N,13653.3129,E,2.0,50.6,270224,7.9,W,D*09
$GNRMC,062412.00,A,3510.5462,N,13653.3130,E,3.9,21.3,270224,7.9,W,D*0B
$GNRMC,062413.00,A,3510.5474,N,13653.3133,E,5.0,11.5,270224,7.9,W,D*04
$GNRMC,062414.00,A,3510.5484,N,13653.3133,E,,8.5,270224,7.9,W,D*1F
$GNRMC,062415.01,A,3510.5497,N,13653.3136,E,5.0,5.9,270224,7.9,W,D*32
$GNRMC,062416.00,A,3510.5509,N,13653.3137,E,,5.1,270224,7.9,W,D*14
$GNRMC,062417.03,A,3510.5525,N,13653.3143,E,5.0,7.1,270224,7.9,W,D*32
$GNRMC,062418.03,A,3510.5549,N,13653.3147,E,8.6,7.4,270224,7.9,W,D*3D
$GNRMC,062419.00,A,3510.5571,N,13653.3146,E,9.3,5.0,270224,7.9,W,D*37
$GNRMC,062420.00,A,3510.5599,N,13653.3144,E,,4.1,270224,7.9,W,D*1D
$GNRMC,062421.01,A,3510.5633,N,13653.3141,E,9.4,358.3,270224,7.9,W,D*30
$GNRMC,062422.00,A,3510.5662,N,13653.3141,E,,356.7,270224,7.9,W,A*1A
$GNRMC,062423.00,A,3510.5692,N,13653.3139,E,9.7,359.3,270224,7.9,W,A*30
$GNRMC,062424.00,A,3510.5717,N,13653.3140,E,10.0,0.2,270224,7.9,W,A*04
$GNRMC,062425.00,A,3510.5744,N,13653.3140,E,9.3,358.0,270224,7.9,W,A*34
$GNRMC,062426.00,A,3510.5771,N,13653.3132,E,9.4,354.8,270224,7.9,W,A*37
$GNRMC,062427.01,A,3510.5801,N,13653.3132,E,9.6,357.3,270224,7.9,W,A*35
$GNRMC,062428.00,A,3510.5828,N,13653.3132,E,9.7,358.7,270224,7.9,W,A*3A
$GNRMC,062429.00,A,3510.5852,N,13653.3134,E,9.7,358.9,270224,7.9,W,A*3E
$GNRMC,062430.00,A,3510.5883,N,13653.3135,E,9.9,356.1,270224,7.9,W,A*33
$GNRMC,062431.00,A,3510.5906,N,13653.3134,E,9.9,354.0,270224,7.9,W,A*3C
$GNRMC,062432.00,A,3510.5921,N,13653.3131,E,9.9,352.8,270224,7.9,W,A*31
$GNRMC,062433.00,A,3510.5944,N,13653.3127,E,,352.4,270224,7.9,W,A*16
$GNRMC,062434.00,A,3510.5972,N,13653.3122,E,,352.3,270224,7.9,W,A*16
$GNRMC,062435.02,A,3510.5978,N,13653.3123,E,8.3,352.3,270224,7.9,W,A*3B
$GNRMC,062436.00,A,3510.5972,N,13653.3129,E,,352.3,270224,7.9,W,A*1F
$GNRMC,062437.04,A,3510.5976,N,13653.3137,E,5.0,8.7,270224,7.9,W,A*32
$GNRMC,062438.00,A,3510.5985,N,13653.3144,E,,14.0,270224,7.9,W,A*20
$GNRMC,062439.03,A,3510.6000,N,13653.3144,E,3.2,8.4,270224,7.9,W,A*33
$GNRMC,062440.00,A,3510.6015,N,13653.3148,E,3.2,10.8,270224,7.9,W,A*03
$GNRMC,062441.00,A,3510.6031,N,13653.3151,E,10.0,10.8,270224,7.9,W,A*3C
$GNRMC,062442.00,A,3510.6051,N,13653.3153,E,9.5,8.5,270224,7.9,W,A*32
$GNRMC,062443.00,A,3510.6094,N,13653.3157,E,9.5,5.5,270224,7.9,W,A*33
$GNRMC,062444.00,A,3510.6118,N,13653.3161,E,9.6,5.6,270224,7.9,W,A*34
$GNRMC,062445.00,A,3510.6147,N,13653.3158,E,9.6,2.1,270224,7.9,W,A*35
$GNRMC,062446.00,A,3510.6178,N,13653.3162,E,10.0,2.2,270224,7.9,W,A*0E
$GNRMC,062447.01,A,3510.6204,N,13653.3165,E,10.5,2.6,270224,7.9,W,A*00
$GNRMC,062448.00,A,3510.6232,N,13653.3166,E,,2.8,270224,7.9,W,A*1C
$GNRMC,062449.00,A,3510.6262,N,13653.3154,E,10.5,339.9,270224,7.9,W,A*09
$GNRMC,062450.00,A,3510.6284,N,13653.3143,E,,333.2,270224,7.9,W,A*14
$GNRMC,062451.01,A,3510.6302,N,13653.3157,E,9.4,24.8,270224,7.9,W,A*02
$GNRMC,062452.00,A,3510.6303,N,13653.3191,E,9.3,58.2,270224,7.9,W,A*0D
$GNRMC,062453.00,A,3510.6310,N,13653.3217,E,,68.3,270224,7.9,W,A*25
$GNRMC,062454.00,A,3510.6316,N,13653.3258,E,10.0,83.5,270224,7.9,W,A*33
$GNRMC,062455.00,A,3510.6312,N,13653.3298,E,10.0,91.5,270224,7.9,W,A*39
$GNRMC,062456.00,A,3510.6307,N,13653.3341,E,10.0,93.8,270224,7.9,W,A*34
$GNRMC,062457.00,A,3510.6302,N,13653.3376,E,,94.6,270224,7.9,W,A*22
$GNRMC,062458.00,A,3510.6300,N,13653.3423,E,10.0,89.5,270224,7.9,W,A*38
$GNRMC,062459.00,A,3510.6305,N,13653.3458,E,10.5,88.0,270224,7.9,W,A*31
$GNRMC,062500.00,A,3510.6315,N,13653.3492,E,10.5,86.8,270224,7.9,W,A*3D
$GNRMC,062501.00,A,3510.6319,N,13653.3528,E,10.5,86.0,270224,7.9,W,A*38
$GNRMC,062502.00,A,3510.6322,N,13653.3554,E,10.0,86.8,270224,7.9,W,A*35
$GNRMC,062503.01,A,3510.6324,N,13653.3603,E,10.5,88.2,270224,7.9,W,A*33
$GNRMC,062504.00,A,3510.6322,N,13653.3643,E,10.5,87.5,270224,7.9,W,A*3F
$GNRMC,062505.00,A,3510.6321,N,13653.3680,E,10.5,85.6,270224,7.9,W,A*33
$GNRMC,062506.00,A,3510.6326,N,13653.3709,E,9.3,79.4,270224,7.9,W,A*08
$GNRMC,062507.01,A,3510.6326,N,13653.3734,E,8.2,79.5,270224,7.9,W,A*07
$GNRMC,062508.00,A,3510.6316,N,13653.3759,E,7.3,90.9,270224,7.9,W,A*04
$GNRMC,062509.00,A,3510.6313,N,13653.3771,E,6.5,94.1,270224,7.9,W,A*01
$GNRMC,062510.00,A,3510.6313,N,13653.3781,E,2.3,82.9,270224,7.9,W,A*0B
$GNRMC,062511.00,A,3510.6310,N,13653.3796,E,0.8,80.7,270224,7.9,W,A*0A
$GNRMC,062512.00,A,3510.6313,N,13653.3817,E,2.3,78.7,270224,7.9,W,A*02
$GNRMC,062513.00,A,3510.6317,N,13653.3829,E,2.2,74.8,270224,7.9,W,A*08
$GNRMC,062514.00,A,3510.6316,N,13653.3841,E,3.5,83.4,270224,7.9,W,A*02
$GNRMC,062515.00,A,3510.6320,N,13653.3848,E,3.5,81.0,270224,7.9,W,A*09
$GNRMC,062516.00,A,3510.6325,N,13653.3852,E,2.8,82.9,270224,7.9,W,A*02
$GNRMC,062517.00,A,3510.6326,N,13653.3858,E,2.3,79.9,270224,7.9,W,A*05
$GNRMC,062518.00,A,3510.6326,N,13653.3864,E,2.2,70.6,270224,7.9,W,A*02
$GNRMC,062519.00,A,3510.6330,N,13653.3867,E,1.7,51.8,270224,7.9,W,A*0C
$GNRMC,062520.00,A,3510.6331,N,13653.3871,E,1.7,38.0,270224,7.9,W,A*07
$GNRMC,062521.00,A,3510.6331,N,13653.3874,E,1.4,37.6,270224,7.9,W,A*09
$GNRMC,062522.00,A,3510.6334,N,13653.3871,E,0.8,28.5,270224,7.9,W,A*0A
$GNRMC,062523.00,A,3510.6336,N,13653.3866,E,0.6,19.4,270224,7.9,W,A*02
$GNRMC,062524.00,A,3510.6337,N,13653.3863,E,0.9,2.9,270224,7.9,W,A*39
$GNRMC,062525.00,A,3510.6336,N,13653.3858,E,0.9,342.2,270224,7.9,W,A*3D
$GNRMC,062526.00,A,3510.6335,N,13653.3860,E,0.9,342.2,270224,7.9,W,A*36
$GNRMC,062527.00,A,3510.6336,N,13653.3862,E,0.8,33.4,270224,7.9,W,A*04
$GNRMC,062528.00,A,3510.6335,N,13653.3865,E,0.0,64.6,270224,7.9,W,A*07
$GNRMC,062529.00,A,3510.6334,N,13653.3868,E,0.0,64.6,270224,7.9,W,A*0A
$GNRMC,062530.00,A,3510.6326,N,13653.3848,E,0.2,64.6,270224,7.9,W,A*01
$GNRMC,062531.00,A,3510.6326,N,13653.3848,E,0.6,328.2,270224,7.9,W,A*3B
$GNRMC,062532.00,A,3510.6326,N,13653.3848,E,0.6,305.1,270224,7.9,W,A*34
$GNRMC,062533.00,A,3510.6326,N,13653.3848,E,0.7,323.7,270224,7.9,W,A*36
$GNRMC,062534.00,A,3510.6326,N,13653.3848,E,0.7,284.9,270224,7.9,W,A*33
$GNRMC,062535.00,A,3510.6326,N,13653.3848,E,0.8,224.0,270224,7.9,W,A*3E
$GNRMC,062536.00,A,3510.6326,N,13653.3848,E,1.1,181.5,270224,7.9,W,A*3C
$GNRMC,062537.00,A,3510.6326,N,13653.3848,E,1.5,181.5,270224,7.9,W,A*39
$GNRMC,062538.00,A,3510.6326,N,13653.3848,E,0.8,181.5,270224,7.9,W,A*3A
$GNRMC,062539.00,A,3510.6326,N,13653.3848,E,0.9,80.9,270224,7.9,W,A*06
$GNRMC,062540.01,A,3510.6326,N,13653.3848,E,0.9,80.9,270224,7.9,W,A*09
$GNRMC,062541.00,A,3510.6326,N,13653.3848,E,1.0,53.6,270224,7.9,W,A*00
$GNRMC,062542.00,A,3510.6326,N,13653.3848,E,1.0,78.6,270224,7.9,W,A*0A
$GNRMC,062543.00,A,3510.6326,N,13653.3848,E,1.1,69.5,270224,7.9,W,A*09
$GNRMC,062544.00,A,3510.6326,N,13653.3848,E,1.1,98.9,270224,7.9,W,A*0C
$GNRMC,062545.00,A,3510.6326,N,13653.3848,E,1.2,57.0,270224,7.9,W,A*04
$GNRMC,062546.00,A,3510.6326,N,13653.3848,E,1.3,50.3,270224,7.9,W,A*02
$GNRMC,062547.00,A,3510.6326,N,13653.3848,E,1.4,101.9,270224,7.9,W,A*3B
$GNRMC,062548.00,A,3510.6326,N,13653.3848,E,1.3,59.2,270224,7.9,W,A*04
$GNRMC,062549.00,A,3510.6326,N,13653.3848,E,1.3,87.1,270224,7.9,W,A*05
$GNRMC,062550.00,A,3510.6326,N,13653.3848,E,1.5,79.7,270224,7.9,W,A*0C
$GNRMC,062551.00,A,3510.6326,N,13653.3848,E,0.5,100.8,270224,7.9,W,A*3C
$GNRMC,062552.00,A,3510.6326,N,13653.3848,E,1.3,45.4,270224,7.9,W,A*04
$GNRMC,062553.00,A,3510.6326,N,13653.3849,E,1.3,45.4,270224,7.9,W,A*04
$GNRMC,062554.00,A,3510.6326,N,13653.3849,E,1.3,85.6,270224,7.9,W,A*0D
$GNRMC,062555.00,A,3510.6326,N,13653.3849,E,1.2,111.9,270224,7.9,W,A*3E
$GNRMC,062556.01,A,3510.6326,N,13653.3849,E,0.0,116.9,270224,7.9,W,A*38
$GNRMC,062557.01,A,3510.6326,N,13653.3849,E,1.0,118.8,270224,7.9,W,A*37
$GNRMC,062558.00,A,3510.6326,N,13653.3849,E,0.0,113.1,270224,7.9,W,A*3A
$GNRMC,062559.00,A,3510.6326,N,13653.3849,E,1.4,113.1,270224,7.9,W,A*3E
$GNRMC,062600.01,A,3510.6326,N,13653.3849,E,0.8,113.1,270224,7.9,W,A*3D
$GNRMC,062601.00,A,3510.6326,N,13653.3849,E,1.0,324.8,270224,7.9,W,A*3B
$GNRMC,062602.00,A,3510.6326,N,13653.3849,E,0.0,337.3,270224,7.9,W,A*30
$GNRMC,062603.00,A,3510.6326,N,13653.3849,E,0.0,333.6,270224,7.9,W,A*30
$GNRMC,062604.00,A,3510.6326,N,13653.3849,E,0.8,338.8,270224,7.9,W,A*3A
$GNRMC,062605.00,A,3510.6326,N,13653.3849,E,0.5,338.8,270224,7.9,W,A*36
$GNRMC,062606.00,A,3510.6326,N,13653.3849,E,0.4,338.8,270224,7.9,W,A*34
$GNRMC,062607.00,A,3510.6326,N,13653.3849,E,0.0,141.9,270224,7.9,W,A*3C
$GNRMC,062608.00,A,3510.6326,N,13653.3850,E,0.4,141.9,270224,7.9,W,A*3F
$GNRMC,062609.00,A,3510.6326,N,13653.3850,E,0.5,106.4,270224,7.9,W,A*31
$GNRMC,062610.00,A,3510.6326,N,13653.3850,E,0.0,106.8,270224,7.9,W,A*30
$GNRMC,062611.00,A,3510.6326,N,13653.3850,E,0.4,133.9,270224,7.9,W,A*32
$GNRMC,062612.00,A,3510.6327,N,13653.3850,E,0.4,162.4,270224,7.9,W,A*39
$GNRMC,062613.00,A,3510.6327,N,13653.3850,E,0.4,198.7,270224,7.9,W,A*3E
$GNRMC,062614.00,A,3510.6327,N,13653.3850,E,0.4,250.7,270224,7.9,W,A*3E
$GNRMC,062615.00,A,3510.6327,N,13653.3850,E,0.0,276.5,270224,7.9,W,A*3D
$GNRMC,062616.00,A,3510.6327,N,13653.3850,E,0.4,252.6,270224,7.9,W,A*3F
$GNRMC,062617.00,A,3510.6327,N,13653.3850,E,0.4,282.4,270224,7.9,W,A*31
$GNRMC,062618.00,A,3510.6327,N,13653.3851,E,0.4,276.3,270224,7.9,W,A*33
$GNRMC,062619.00,A,3510.6327,N,13653.3851,E,0.4,281.4,270224,7.9,W,A*3D
$GNRMC,062620.00,A,3510.6327,N,13653.3851,E,0.6,281.4,270224,7.9,W,A*35
$GNRMC,062621.00,A,3510.6327,N,13653.3851,E,1.1,291.3,270224,7.9,W,A*34
$GNRMC,062622.00,A,3510.6327,N,13653.3851,E,0.4,301.6,270224,7.9,W,A*3E
$GNRMC,062623.01,A,3510.6327,N,13653.3851,E,0.4,284.0,270224,7.9,W,A*34
$GNRMC,062624.00,A,3510.6327,N,13653.3851,E,0.0,291.1,270224,7.9,W,A*33
$GNRMC,062625.00,A,3510.6327,N,13653.3851,E,0.4,308.5,270224,7.9,W,A*33
$GNRMC,062626.00,A,3510.6327,N,13653.3852,E,0.4,316.0,270224,7.9,W,A*39
$GNRMC,062627.00,A,3510.6327,N,13653.3852,E,0.5,316.0,270224,7.9,W,A*39
$GNRMC,062628.01,A,3510.6327,N,13653.3852,E,0.0,316.0,270224,7.9,W,A*32
$GNRMC,062629.00,A,3510.6327,N,13653.3852,E,0.0,174.0,270224,7.9,W,A*34
$GNRMC,062630.01,A,3510.6327,N,13653.3852,E,0.1,142.0,270224,7.9,W,A*39
$GNRMC,062631.00,A,3510.6327,N,13653.3852,E,0.0,134.7,270224,7.9,W,A*3E
$GNRMC,062632.01,A,3510.6327,N,13653.3852,E,0.3,134.7,270224,7.9,W,A*3F
$GNRMC,062633.01,A,3510.6327,N,13653.3852,E,0.3,134.7,270224,7.9,W,A*3E
$GNRMC,062634.00,A,3510.6327,N,13653.3853,E,0.3,99.9,270224,7.9,W,A*01
$GNRMC,062635.00,A,3510.6327,N,13653.3853,E,0.4,99.9,270224,7.9,W,A*07
$GNRMC,062636.00,A,3510.6327,N,13653.3853,E,0.0,99.9,270224,7.9,W,A*00
$GNRMC,062637.00,A,3510.6327,N,13653.3853,E,0.3,297.3,270224,7.9,W,A*34
$GNRMC,062638.00,A,3510.6327,N,13653.3853,E,0.3,312.5,270224,7.9,W,A*31
$GNRMC,062639.00,A,3510.6327,N,13653.3853,E,0.4,320.9,270224,7.9,W,A*3A
$GNRMC,062640.00,A,3510.6327,N,13653.3853,E,0.4,333.0,270224,7.9,W,A*3F
$GNRMC,062641.00,A,3510.6327,N,13653.3853,E,0.4,5.1,270224,7.9,W,A*39
$GNRMC,062642.00,A,3510.6327,N,13653.3853,E,0.4,333.1,270224,7.9,W,A*3C
$GNRMC,062643.00,A,3510.6327,N,13653.3853,E,0.4,335.9,270224,7.9,W,A*33
$GNRMC,062644.00,A,3510.6327,N,13653.3853,E,0.4,335.9,270224,7.9,W,A*34
$GNRMC,062645.00,A,3510.6327,N,13653.3853,E,0.5,335.9,270224,7.9,W,A*34
$GNRMC,062646.00,A,3510.6327,N,13653.3853,E,0.5,152.7,270224,7.9,W,A*3A
$GNRMC,062647.01,A,3510.6327,N,13653.3853,E,0.5,170.8,270224,7.9,W,A*35
$GNRMC,062648.00,A,3510.6327,N,13653.3853,E,0.5,170.8,270224,7.9,W,A*3B
$GNRMC,062649.00,A,3510.6327,N,13653.3853,E,0.0,170.8,270224,7.9,W,A*3F
$GNRMC,062650.00,A,3510.6327,N,13653.3853,E,0.4,270.9,270224,7.9,W,A*31
$GNRMC,062651.00,A,3510.6327,N,13653.3854,E,0.5,270.9,270224,7.9,W,A*36
$GNRMC,062652.00,A,3510.6327,N,13653.3854,E,0.4,270.9,270224,7.9,W,A*34
$GNRMC,062653.00,A,3510.6327,N,13653.3854,E,0.7,58.9,270224,7.9,W,A*0E
$GNRMC,062654.00,A,3510.6327,N,13653.3854,E,1.0,21.9,270224,7.9,W,A*01
$GNRMC,062655.00,A,3510.6327,N,13653.3854,E,2.5,1.6,270224,7.9,W,A*3B
$GNRMC,062656.00,A,3510.6329,N,13653.3873,E,3.5,356.9,270224,7.9,W,D*39
$GNRMC,062657.00,A,3510.6339,N,13653.3873,E,6.7,357.3,270224,7.9,W,D*35
$GNRMC,062658.02,A,3510.6354,N,13653.3873,E,8.1,358.3,270224,7.9,W,D*34
$GNRMC,062659.00,A,3510.6371,N,13653.3873,E,9.6,359.3,270224,7.9,W,D*37
$GNRMC,062700.00,A,3510.6413,N,13653.3866,E,9.7,358.0,270224,7.9,W,D*3E
$GNRMC,062701.00,A,3510.6444,N,13653.3861,E,9.6,357.2,270224,7.9,W,D*36
$GNRMC,062702.00,A,3510.6475,N,13653.3856,E,9.2,357.0,270224,7.9,W,D*35
$GNRMC,062703.00,A,3510.6507,N,13653.3854,E,9.2,358.4,270224,7.9,W,D*39
$GNRMC,062704.00,A,3510.6538,N,13653.3852,E,9.2,358.8,270224,7.9,W,D*38
$GNRMC,062705.00,A,3510.6570,N,13653.3848,E,9.6,357.5,270224,7.9,W,D*38
$GNRMC,062706.00,A,3510.6602,N,13653.3846,E,9.7,356.4,270224,7.9,W,D*32
$GNRMC,062707.00,A,3510.6633,N,13653.3845,E,9.7,356.9,270224,7.9,W,D*3F
$GNRMC,062708.00,A,3510.6665,N,13653.3840,E,10.0,357.7,270224,7.9,W,D*06
$GNRMC,062709.01,A,3510.6698,N,13653.3837,E,10.2,358.3,270224,7.9,W,D*0D
$GNRMC,062710.00,A,3510.6731,N,13653.3836,E,10.5,359.4,270224,7.9,W,D*06
$GNRMC,062711.00,A,3510.6766,N,13653.3834,E,10.6,0.2,270224,7.9,W,D*0D
$GNRMC,062712.00,A,3510.6798,N,13653.3834,E,10.6,0.2,270224,7.9,W,D*0F
$GNRMC,062713.00,A,3510.6831,N,13653.3829,E,10.7,358.3,270224,7.9,W,D*00
$GNRMC,062714.00,A,3510.6865,N,13653.3822,E,10.7,358.8,270224,7.9,W,D*06
$GNRMC,062715.00,A,3510.6897,N,13653.3823,E,10.7,359.1,270224,7.9,W,D*03
$GNRMC,062716.00,A,3510.6924,N,13653.3821,E,10.7,358.7,270224,7.9,W,D*0C
$GNRMC,062717.00,A,3510.6948,N,13653.3821,E,9.9,358.8,270224,7.9,W,D*3E
$GNRMC,062718.00,A,3510.6971,N,13653.3821,E,8.1,0.1,270224,7.9,W,D*35
$GNRMC,062719.00,A,3510.6995,N,13653.3825,E,8.1,1.7,270224,7.9,W,D*3D
$GNRMC,062720.00,A,3510.7019,N,13653.3825,E,8.8,4.1,270224,7.9,W,D*31
$GNRMC,062721.01,A,3510.7048,N,13653.3827,E,9.0,5.8,270224,7.9,W,D*36
$GNRMC,062722.00,A,3510.7074,N,13653.3832,E,10.4,4.9,270224,7.9,W,D*03
$GNRMC,062723.00,A,3510.7102,N,13653.3835,E,10.2,3.4,270224,7.9,W,D*09
$GNRMC,062724.00,A,3510.7131,N,13653.3839,E,10.2,2.8,270224,7.9,W,D*0F
$GNRMC,062725.00,A,3510.7160,N,13653.3840,E,10.2,2.0,270224,7.9,W,D*0C
$GNRMC,062726.00,A,3510.7191,N,13653.3841,E,10.2,359.7,270224,7.9,W,D*0A
$GNRMC,062727.00,A,3510.7222,N,13653.3835,E,10.3,356.2,270224,7.9,W,D*08
$GNRMC,062728.00,A,3510.7251,N,13653.3829,E,10.3,354.2,270224,7.9,W,D*0C
$GNRMC,062729.00,A,3510.7281,N,13653.3826,E,10.4,354.3,270224,7.9,W,D*09
$GNRMC,062730.00,A,3510.7307,N,13653.3828,E,10.4,355.9,270224,7.9,W,D*0B
$GNRMC,062731.00,A,3510.7335,N,13653.3831,E,10.4,358.3,270224,7.9,W,D*04
$GNRMC,062732.00,A,3510.7364,N,13653.3833,E,10.4,359.3,270224,7.9,W,D*00
$GNRMC,062733.00,A,3510.7389,N,13653.3831,E,10.3,358.5,270224,7.9,W,D*00
$GNRMC,062734.00,A,3510.7418,N,13653.3829,E,10.3,358.7,270224,7.9,W,D*03
$GNRMC,062735.00,A,3510.7450,N,13653.3830,E,10.2,358.8,270224,7.9,W,D*08
$GNRMC,062736.00,A,3510.7478,N,13653.3830,E,10.2,358.6,270224,7.9,W,D*0F
$GNRMC,062737.00,A,3510.7509,N,13653.3833,E,10.2,358.7,270224,7.9,W,D*0B
$GNRMC,062738.00,A,3510.7540,N,13653.3835,E,10.2,357.3,270224,7.9,W,D*04
$GNRMC,062739.00,A,3510.7571,N,13653.3835,E,10.4,357.6,270224,7.9,W,D*04
$GNRMC,062740.00,A,3510.7604,N,13653.3838,E,10.4,358.0,270224,7.9,W,D*0F
$GNRMC,062741.03,A,3510.7635,N,13653.3830,E,10.4,357.2,270224,7.9,W,D*0A
$GNRMC,062742.00,A,3510.7665,N,13653.3827,E,10.4,356.3,270224,7.9,W,D*09
$GNRMC,062743.00,A,3510.7695,N,13653.3824,E,10.9,356.6,270224,7.9,W,D*0C
$GNRMC,062744.00,A,3510.7727,N,13653.3815,E,10.9,356.9,270224,7.9,W,D*0E
$GNRMC,062745.00,A,3510.7758,N,13653.3809,E,10.9,357.1,270224,7.9,W,D*03
$GNRMC,062746.00,A,3510.7790,N,13653.3802,E,11.0,356.5,270224,7.9,W,D*02
$GNRMC,062747.00,A,3510.7818,N,13653.3800,E,11.0,357.1,270224,7.9,W,D*0B
$GNRMC,062748.00,A,3510.7849,N,13653.3799,E,10.9,356.9,270224,7.9,W,D*0E
$GNRMC,062749.00,A,3510.7882,N,13653.3797,E,10.9,358.5,270224,7.9,W,D*04
$GNRMC,062750.00,A,3510.7912,N,13653.3793,E,10.9,359.6,270224,7.9,W,D*02
$GNRMC,062751.00,A,3510.7945,N,13653.3793,E,10.9,0.5,270224,7.9,W,D*0D
$GNRMC,062752.00,A,3510.7976,N,13653.3794,E,10.9,359.8,270224,7.9,W,D*0B
$GNRMC,062753.00,A,3510.8008,N,13653.3795,E,10.9,359.2,270224,7.9,W,D*0E
$GNRMC,062754.00,A,3510.8038,N,13653.3798,E,10.8,359.8,270224,7.9,W,D*0C
$GNRMC,062755.00,A,3510.8063,N,13653.3797,E,10.7,357.5,270224,7.9,W,D*00
$GNRMC,062756.00,A,3510.8085,N,13653.3796,E,9.2,353.2,270224,7.9,W,D*34
$GNRMC,062757.00,A,3510.8106,N,13653.3780,E,8.5,343.5,270224,7.9,W,D*38
$GNRMC,062758.00,A,3510.8119,N,13653.3756,E,8.5,325.7,270224,7.9,W,D*30
$GNRMC,062759.00,A,3510.8124,N,13653.3726,E,8.8,304.8,270224,7.9,W,D*39
$GNRMC,062800.00,A,3510.8128,N,13653.3695,E,9.8,292.3,270224,7.9,W,D*3B
$GNRMC,062801.00,A,3510.8128,N,13653.3663,E,10.2,283.1,270224,7.9,W,D*03
$GNRMC,062802.00,A,3510.8127,N,13653.3630,E,9.8,277.2,270224,7.9,W,D*33
$GNRMC,062803.00,A,3510.8126,N,13653.3602,E,9.8,274.2,270224,7.9,W,D*31
$GNRMC,062804.00,A,3510.8128,N,13653.3569,E,9.8,273.4,270224,7.9,W,D*37
$GNRMC,062805.00,A,3510.8129,N,13653.3535,E,9.8,273.1,270224,7.9,W,D*3B
$GNRMC,062806.00,A,3510.8130,N,13653.3501,E,9.8,272.8,270224,7.9,W,D*3F
$GNRMC,062807.00,A,3510.8131,N,13653.3461,E,10.5,273.4,270224,7.9,W,D*00
$GNRMC,062808.00,A,3510.8131,N,13653.3424,E,10.3,272.9,270224,7.9,W,D*04
$GNRMC,062809.00,A,3510.8131,N,13653.3391,E,10.3,271.6,270224,7.9,W,D*00
$GNRMC,062810.00,A,3510.8131,N,13653.3357,E,10.3,271.7,270224,7.9,W,D*03
$GNRMC,062811.00,A,3510.8131,N,13653.3322,E,10.5,272.4,270224,7.9,W,D*06
$GNRMC,062812.00,A,3510.8130,N,13653.3288,E,10.5,271.8,270224,7.9,W,D*0A
$GNRMC,062813.00,A,3510.8129,N,13653.3251,E,10.6,272.3,270224,7.9,W,D*0C
$GNRMC,062814.00,A,3510.8127,N,13653.3220,E,10.6,271.5,270224,7.9,W,D*06
$GNRMC,062815.00,A,3510.8121,N,13653.3195,E,9.6,266.2,270224,7.9,W,D*35
$GNRMC,062816.00,A,3510.8107,N,13653.3172,E,7.9,250.1,270224,7.9,W,D*3C
$GNRMC,062817.00,A,3510.8085,N,13653.3164,E,7.9,226.9,270224,7.9,W,D*38
$GNRMC,062818.00,A,3510.8059,N,13653.3160,E,9.0,207.7,270224,7.9,W,D*38
$GNRMC,062819.00,A,3510.8031,N,13653.3159,E,10.2,196.4,270224,7.9,W,D*0F
$GNRMC,062820.00,A,3510.8002,N,13653.3157,E,10.2,190.1,270224,7.9,W,D*08
$GNRMC,062821.00,A,3510.7975,N,13653.3156,E,10.1,186.2,270224,7.9,W,D*09
$GNRMC,062822.00,A,3510.7946,N,13653.3161,E,10.1,182.5,270224,7.9,W,D*0D
$GNRMC,062823.00,A,3510.7918,N,13653.3165,E,10.2,180.7,270224,7.9,W,D*00
$GNRMC,062824.00,A,3510.7889,N,13653.3166,E,10.2,180.4,270224,7.9,W,D*0E
$GNRMC,062825.00,A,3510.7866,N,13653.3162,E,10.2,181.3,270224,7.9,W,D*0C
$GNRMC,062826.00,A,3510.7840,N,13653.3164,E,8.9,180.2,270224,7.9,W,D*3F
$GNRMC,062827.00,A,3510.7816,N,13653.3166,E,7.7,180.5,270224,7.9,W,D*39
$GNRMC,062828.00,A,3510.7790,N,13653.3165,E,7.7,181.0,270224,7.9,W,D*30
$GNRMC,062829.00,A,3510.7762,N,13653.3166,E,9.1,180.3,270224,7.9,W,D*35
$GNRMC,062830.00,A,3510.7734,N,13653.3167,E,10.1,180.2,270224,7.9,W,D*06
$GNRMC,062831.00,A,3510.7706,N,13653.3168,E,10.1,180.9,270224,7.9,W,D*02
$GNRMC,062832.00,A,3510.7676,N,13653.3170,E,9.9,181.2,270224,7.9,W,D*34
$GNRMC,062833.00,A,3510.7649,N,13653.3170,E,9.7,181.1,270224,7.9,W,D*34
$GNRMC,062834.00,A,3510.7626,N,13653.3168,E,9.1,182.3,270224,7.9,W,D*34
$GNRMC,062835.00,A,3510.7608,N,13653.3165,E,7.9,183.5,270224,7.9,W,D*35
$GNRMC,062836.00,A,3510.7590,N,13653.3162,E,5.6,187.7,270224,7.9,W,D*38
$GNRMC,062837.00,A,3510.7576,N,13653.3149,E,5.6,205.7,270224,7.9,W,D*31
$GNRMC,062838.00,A,3510.7567,N,13653.3129,E,7.5,229.6,270224,7.9,W,D*36
$GNRMC,062839.00,A,3510.7563,N,13653.3098,E,9.3,247.3,270224,7.9,W,D*3D
$GNRMC,062840.00,A,3510.7557,N,13653.3070,E,9.3,257.3,270224,7.9,W,D*33
$GNRMC,062841.00,A,3510.7557,N,13653.3037,E,9.3,264.3,270224,7.9,W,D*31
$GNRMC,062842.00,A,3510.7556,N,13653.3004,E,10.7,267.9,270224,7.9,W,D*06
$GNRMC,062843.00,A,3510.7557,N,13653.2969,E,11.0,270.3,270224,7.9,W,D*0F
$GNRMC,062844.00,A,3510.7560,N,13653.2933,E,11.0,272.3,270224,7.9,W,D*01
$GNRMC,062845.00,A,3510.7560,N,13653.2902,E,10.9,273.1,270224,7.9,W,D*09
$GNRMC,062846.00,A,3510.7562,N,13653.2873,E,9.3,273.6,270224,7.9,W,D*3A
$GNRMC,062847.00,A,3510.7563,N,13653.2848,E,7.4,273.9,270224,7.9,W,D*34
$GNRMC,062848.00,A,3510.7563,N,13653.2831,E,5.8,273.4,270224,7.9,W,D*36
$GNRMC,062849.00,A,3510.7562,N,13653.2822,E,3.9,269.9,270224,7.9,W,D*35
$GNRMC,062850.00,A,3510.7558,N,13653.2811,E,3.3,259.0,270224,7.9,W,D*34
$GNRMC,062851.00,A,3510.7542,N,13653.2805,E,3.3,232.2,270224,7.9,W,D*34
$GNRMC,062852.00,A,3510.7522,N,13653.2802,E,6.9,209.2,270224,7.9,W,D*31
$GNRMC,062853.00,A,3510.7498,N,13653.2801,E,8.7,195.5,270224,7.9,W,D*32
$GNRMC,062854.00,A,3510.7470,N,13653.2800,E,10.2,188.6,270224,7.9,W,D*01
$GNRMC,062855.00,A,3510.7440,N,13653.2797,E,10.2,185.1,270224,7.9,W,D*08
$GNRMC,062856.00,A,3510.7411,N,13653.2791,E,10.6,184.1,270224,7.9,W,D*0C
$GNRMC,062857.00,A,3510.7385,N,13653.2787,E,10.6,183.6,270224,7.9,W,D*00
$GNRMC,062858.00,A,3510.7361,N,13653.2784,E,9.3,183.9,270224,7.9,W,D*34
$GNRMC,062859.00,A,3510.7342,N,13653.2783,E,7.8,184.1,270224,7.9,W,D*39
$GNRMC,062900.00,A,3510.7327,N,13653.2786,E,5.4,182.1,270224,7.9,W,D*3A
$GNRMC,062901.00,A,3510.7316,N,13653.2790,E,3.1,179.3,270224,7.9,W,D*3B
$GNRMC,062902.00,A,3510.7309,N,13653.2790,E,2.2,183.4,270224,7.9,W,D*36
$GNRMC,062903.00,A,3510.7298,N,13653.2780,E,2.2,196.8,270224,7.9,W,D*37
$GNRMC,062904.00,A,3510.7287,N,13653.2762,E,5.2,216.0,270224,7.9,W,D*36
$GNRMC,062905.00,A,3510.7279,N,13653.2737,E,7.7,232.5,270224,7.9,W,D*32
$GNRMC,062906.00,A,3510.7277,N,13653.2707,E,8.7,250.2,270224,7.9,W,D*30
$GNRMC,062907.00,A,3510.7274,N,13653.2673,E,10.3,259.6,270224,7.9,W,D*00
$GNRMC,062908.00,A,3510.7275,N,13653.2636,E,10.5,266.3,270224,7.9,W,D*00
$GNRMC,062909.00,A,3510.7276,N,13653.2600,E,10.3,269.8,270224,7.9,W,D*05
$GNRMC,062910.00,A,3510.7279,N,13653.2565,E,10.3,271.7,270224,7.9,W,D*04
$GNRMC,062911.00,A,3510.7281,N,13653.2528,E,10.3,272.0,270224,7.9,W,D*0F
$GNRMC,062912.00,A,3510.7285,N,13653.2498,E,10.3,272.5,270224,7.9,W,D*07
$GNRMC,062913.00,A,3510.7289,N,13653.2454,E,10.3,272.5,270224,7.9,W,D*0A
$GNRMC,062914.00,A,3510.7292,N,13653.2425,E,10.4,272.7,270224,7.9,W,D*04
$GNRMC,062915.00,A,3510.7295,N,13653.2402,E,8.0,272.1,270224,7.9,W,D*3C
$GNRMC,062916.00,A,3510.7297,N,13653.2385,E,5.3,271.9,270224,7.9,W,D*30
$GNRMC,062917.00,A,3510.7300,N,13653.2372,E,3.0,273.3,270224,7.9,W,D*3B
$GNRMC,062918.00,A,3510.7301,N,13653.2361,E,3.0,273.6,270224,7.9,W,D*32
$GNRMC,062919.00,A,3510.7298,N,13653.2353,E,2.6,269.4,270224,7.9,W,D*3D
$GNRMC,062920.00,A,3510.7296,N,13653.2345,E,2.6,269.6,270224,7.9,W,D*3C
$GNRMC,062921.00,A,3510.7295,N,13653.2338,E,3.2,272.0,270224,7.9,W,D*3D
$GNRMC,062922.00,A,3510.7301,N,13653.2325,E,2.6,283.0,270224,7.9,W,D*35
$GNRMC,062923.00,A,3510.7309,N,13653.2319,E,3.2,302.3,270224,7.9,W,D*3D
$GNRMC,062924.00,A,3510.7321,N,13653.2315,E,3.2,323.7,270224,7.9,W,D*3B
$GNRMC,062925.00,A,3510.7337,N,13653.2313,E,3.2,343.5,270224,7.9,W,D*3F
$GNRMC,062926.00,A,3510.7346,N,13653.2314,E,3.2,352.5,270224,7.9,W,D*3D
$GNRMC,062927.00,A,3510.7358,N,13653.2314,E,4.0,357.7,270224,7.9,W,D*31
$GNRMC,062928.00,A,3510.7370,N,13653.2318,E,4.0,359.6,270224,7.9,W,D*37
$GNRMC,062929.00,A,3510.7384,N,13653.2324,E,4.2,3.7,270224,7.9,W,D*3D
$GNRMC,062930.00,A,3510.7400,N,13653.2329,E,5.2,4.5,270224,7.9,W,D*37
$GNRMC,062931.00,A,3510.7421,N,13653.2333,E,6.4,6.0,270224,7.9,W,D*3C
$GNRMC,062932.00,A,3510.7443,N,13653.2333,E,7.6,3.8,270224,7.9,W,D*35
$GNRMC,062933.00,A,3510.7466,N,13653.2327,E,8.2,359.8,270224,7.9,W,D*31
$GNRMC,062934.00,A,3510.7496,N,13653.2327,E,8.9,0.5,270224,7.9,W,D*30
$GNRMC,062935.00,A,3510.7524,N,13653.2324,E,9.4,358.4,270224,7.9,W,D*39
$GNRMC,062936.00,A,3510.7545,N,13653.2319,E,10.5,356.3,270224,7.9,W,D*03
$GNRMC,062937.00,A,3510.7574,N,13653.2322,E,10.5,358.0,270224,7.9,W,D*05
$GNRMC,062938.00,A,3510.7603,N,13653.2324,E,10.5,0.2,270224,7.9,W,D*03
$GNRMC,062939.00,A,3510.7631,N,13653.2331,E,10.4,3.8,270224,7.9,W,D*0F
$GNRMC,062940.00,A,3510.7660,N,13653.2334,E,10.1,4.9,270224,7.9,W,D*03
$GNRMC,062941.00,A,3510.7689,N,13653.2336,E,10.2,3.5,270224,7.9,W,D*0F
$GNRMC,062942.00,A,3510.7718,N,13653.2341,E,10.4,3.2,270224,7.9,W,D*04
$GNRMC,062943.00,A,3510.7743,N,13653.2346,E,10.4,3.7,270224,7.9,W,D*09
$GNRMC,062944.00,A,3510.7769,N,13653.2349,E,10.4,3.1,270224,7.9,W,D*0F
$GNRMC,062945.00,A,3510.7795,N,13653.2349,E,8.9,359.6,270224,7.9,W,D*32
$GNRMC,062946.00,A,3510.7810,N,13653.2339,E,7.3,347.5,270224,7.9,W,D*3D
$GNRMC,062947.00,A,3510.7826,N,13653.2316,E,7.3,321.8,270224,7.9,W,D*39
$GNRMC,062948.00,A,3510.7830,N,13653.2293,E,9.7,305.2,270224,7.9,W,D*3B
$GNRMC,062949.00,A,3510.7838,N,13653.2257,E,10.0,294.0,270224,7.9,W,D*0E
$GNRMC,062950.00,A,3510.7841,N,13653.2228,E,10.0,287.7,270224,7.9,W,D*05
$GNRMC,062951.00,A,3510.7846,N,13653.2193,E,10.0,283.5,270224,7.9,W,D*06
$GNRMC,062952.00,A,3510.7851,N,13653.2158,E,10.0,282.1,270224,7.9,W,D*01
$GNRMC,062953.00,A,3510.7858,N,13653.2121,E,10.0,282.7,270224,7.9,W,D*01
$GNRMC,062954.00,A,3510.7867,N,13653.2084,E,10.2,282.9,270224,7.9,W,D*08
$GNRMC,062955.00,A,3510.7873,N,13653.2052,E,10.2,282.4,270224,7.9,W,D*0A
$GNRMC,062956.00,A,3510.7880,N,13653.2022,E,10.2,282.4,270224,7.9,W,D*02
$GNRMC,062957.00,A,3510.7884,N,13653.1990,E,10.2,281.8,270224,7.9,W,D*0B
$GNRMC,062958.00,A,3510.7891,N,13653.1956,E,10.3,282.0,270224,7.9,W,D*00
$GNRMC,062959.00,A,3510.7897,N,13653.1922,E,10.3,281.2,270224,7.9,W,D*05
$GNRMC,063000.00,A,3510.7906,N,13653.1878,E,10.3,281.1,270224,7.9,W,D*05
$GNRMC,063001.00,A,3510.7910,N,13653.1848,E,10.3,280.4,270224,7.9,W,D*04
$GNRMC,063002.00,A,3510.7914,N,13653.1810,E,10.4,279.9,270224,7.9,W,D*02
$GNRMC,063003.00,A,3510.7919,N,13653.1775,E,10.3,280.2,270224,7.9,W,D*08
$GNRMC,063004.00,A,3510.7922,N,13653.1743,E,10.0,281.1,270224,7.9,W,D*03
$GNRMC,063005.00,A,3510.7921,N,13653.1727,E,5.7,279.1,270224,7.9,W,D*37
$GNRMC,063006.00,A,3510.7922,N,13653.1716,E,2.7,278.8,270224,7.9,W,D*3A
$GNRMC,063007.00,A,3510.7920,N,13653.1706,E,2.7,277.0,270224,7.9,W,D*3F
$GNRMC,063008.00,A,3510.7920,N,13653.1701,E,2.6,276.2,270224,7.9,W,D*35
$GNRMC,063009.00,A,3510.7916,N,13653.1698,E,2.0,266.5,270224,7.9,W,D*30
$GNRMC,063010.00,A,3510.7911,N,13653.1696,E,2.7,252.7,270224,7.9,W,D*33
$GNRMC,063011.00,A,3510.7905,N,13653.1694,E,2.7,233.3,270224,7.9,W,D*36
$GNRMC,063012.00,A,3510.7897,N,13653.1695,E,2.7,209.6,270224,7.9,W,D*32
$GNRMC,063013.00,A,3510.7889,N,13653.1696,E,2.7,195.5,270224,7.9,W,D*3A
$GNRMC,063014.00,A,3510.7879,N,13653.1694,E,2.7,190.3,270224,7.9,W,D*33
$GNRMC,063015.00,A,3510.7870,N,13653.1695,E,2.7,184.2,270224,7.9,W,D*3E
$GNRMC,063016.00,A,3510.7858,N,13653.1696,E,3.0,183.1,270224,7.9,W,D*36
$GNRMC,063017.01,A,3510.7847,N,13653.1699,E,3.0,182.4,270224,7.9,W,D*33
$GNRMC,063018.00,A,3510.7836,N,13653.1701,E,3.0,183.1,270224,7.9,W,D*3F
$GNRMC,063019.00,A,3510.7829,N,13653.1704,E,3.0,183.0,270224,7.9,W,D*34
$GNRMC,063020.00,A,3510.7820,N,13653.1703,E,3.0,183.2,270224,7.9,W,D*32
$GNRMC,063021.00,A,3510.7812,N,13653.1704,E,3.0,184.8,270224,7.9,W,D*38
$GNRMC,063022.00,A,3510.7803,N,13653.1702,E,3.0,188.3,270224,7.9,W,D*3A
$GNRMC,063023.01,A,3510.7795,N,13653.1696,E,3.0,190.6,270224,7.9,W,D*3A
$GNRMC,063024.00,A,3510.7785,N,13653.1694,E,3.0,189.2,270224,7.9,W,D*33
$GNRMC,063025.00,A,3510.7775,N,13653.1691,E,3.1,188.0,270224,7.9,W,D*3A
$GNRMC,063026.00,A,3510.7767,N,13653.1690,E,3.0,187.8,270224,7.9,W,D*3D
$GNRMC,063027.00,A,3510.7757,N,13653.1690,E,3.0,186.1,270224,7.9,W,D*37
$GNRMC,063028.00,A,3510.7747,N,13653.1691,E,3.0,184.6,270224,7.9,W,D*3D
$GNRMC,063029.00,A,3510.7739,N,13653.1693,E,2.9,183.6,270224,7.9,W,D*38
$GNRMC,063030.00,A,3510.7733,N,13653.1691,E,3.0,186.0,270224,7.9,W,D*33
$GNRMC,063031.00,A,3510.7725,N,13653.1688,E,2.9,189.5,270224,7.9,W,D*3F
$GNRMC,063032.00,A,3510.7716,N,13653.1688,E,2.9,193.4,270224,7.9,W,D*36
$GNRMC,063033.00,A,3510.7711,N,13653.1684,E,2.9,200.2,270224,7.9,W,D*33
$GNRMC,063034.00,A,3510.7704,N,13653.1678,E,2.9,209.5,270224,7.9,W,D*3D
$GNRMC,063035.00,A,3510.7697,N,13653.1671,E,2.9,212.1,270224,7.9,W,D*30
$GNRMC,063036.00,A,3510.7688,N,13653.1667,E,2.9,207.9,270224,7.9,W,D*36
$GNRMC,063037.00,A,3510.7669,N,13653.1664,E,4.5,195.2,270224,7.9,W,D*32
$GNRMC,063038.00,A,3510.7646,N,13653.1664,E,7.9,187.6,270224,7.9,W,D*38
$GNRMC,063039.00,A,3510.7626,N,13653.1665,E,9.5,184.1,270224,7.9,W,D*38
$GNRMC,063040.00,A,3510.7595,N,13653.1664,E,9.6,182.6,270224,7.9,W,D*3E
$GNRMC,063041.00,A,3510.7569,N,13653.1666,E,10.2,182.2,270224,7.9,W,D*06
$GNRMC,063042.00,A,3510.7534,N,13653.1666,E,10.4,182.0,270224,7.9,W,D*09
$GNRMC,063043.00,A,3510.7508,N,13653.1668,E,10.6,182.0,270224,7.9,W,D*0B
$GNRMC,063044.00,A,3510.7474,N,13653.1668,E,10.4,180.0,270224,7.9,W,D*06
$GNRMC,063045.00,A,3510.7449,N,13653.1663,E,10.0,181.5,270224,7.9,W,D*02
$GNRMC,063046.00,A,3510.7426,N,13653.1663,E,10.0,180.9,270224,7.9,W,D*05
$GNRMC,063047.00,A,3510.7396,N,13653.1663,E,10.2,181.3,270224,7.9,W,D*01
$GNRMC,063048.00,A,3510.7358,N,13653.1665,E,10.3,180.8,270224,7.9,W,D*01
$GNRMC,063049.00,A,3510.7328,N,13653.1666,E,10.3,181.5,270224,7.9,W,D*08
$GNRMC,063050.00,A,3510.7304,N,13653.1667,E,10.4,181.1,270224,7.9,W,D*0C
$GNRMC,063051.00,A,3510.7273,N,13653.1667,E,10.5,181.6,270224,7.9,W,D*0A
$GNRMC,063052.00,A,3510.7236,N,13653.1669,E,10.4,180.8,270224,7.9,W,D*08
$GNRMC,063053.00,A,3510.7213,N,13653.1670,E,10.4,180.3,270224,7.9,W,D*0D
$GNRMC,063054.00,A,3510.7185,N,13653.1670,E,10.3,180.4,270224,7.9,W,D*06
$GNRMC,063055.00,A,3510.7159,N,13653.1676,E,9.3,179.7,270224,7.9,W,D*3D
$GNRMC,063056.00,A,3510.7136,N,13653.1679,E,8.7,179.1,270224,7.9,W,D*3B
$GNRMC,063057.00,A,3510.7118,N,13653.1679,E,7.4,178.9,270224,7.9,W,D*33
$GNRMC,063058.00,A,3510.7103,N,13653.1681,E,6.2,177.7,270224,7.9,W,D*37
$GNRMC,063059.00,A,3510.7089,N,13653.1683,E,5.1,174.0,270224,7.9,W,D*33
$GNRMC,063100.00,A,3510.7077,N,13653.1684,E,4.6,172.5,270224,7.9,W,D*3D
$GNRMC,063101.00,A,3510.7067,N,13653.1688,E,3.3,170.6,270224,7.9,W,D*32
$GNRMC,063102.00,A,3510.7055,N,13653.1692,E,3.0,169.2,270224,7.9,W,D*34
$GNRMC,063103.00,A,3510.7047,N,13653.1698,E,3.0,167.8,270224,7.9,W,D*38
$GNRMC,063104.00,A,3510.7038,N,13653.1701,E,3.1,169.7,270224,7.9,W,D*36
$GNRMC,063105.00,A,3510.7028,N,13653.1701,E,3.3,174.5,270224,7.9,W,D*3A
$GNRMC,063106.00,A,3510.7018,N,13653.1701,E,3.3,175.8,270224,7.9,W,D*36
$GNRMC,063107.00,A,3510.7009,N,13653.1701,E,3.3,178.1,270224,7.9,W,D*33
$GNRMC,063108.00,A,3510.7000,N,13653.1701,E,3.1,179.4,270224,7.9,W,D*33
$GNRMC,063109.00,A,3510.6992,N,13653.1698,E,3.1,183.2,270224,7.9,W,D*33
$GNRMC,063110.00,A,3510.6984,N,13653.1697,E,3.0,185.3,270224,7.9,W,D*35
$GNRMC,063111.00,A,3510.6975,N,13653.1696,E,3.0,184.0,270224,7.9,W,D*39
$GNRMC,063112.00,A,3510.6966,N,13653.1694,E,3.0,183.9,270224,7.9,W,D*34
$GNRMC,063113.00,A,3510.6959,N,13653.1694,E,3.0,182.8,270224,7.9,W,D*39
$GNRMC,063114.00,A,3510.6952,N,13653.1694,E,2.9,182.4,270224,7.9,W,D*31
$GNRMC,063115.00,A,3510.6944,N,13653.1695,E,2.8,181.7,270224,7.9,W,D*37
$GNRMC,063116.00,A,3510.6937,N,13653.1696,E,2.8,180.4,270224,7.9,W,D*31
$GNRMC,063117.00,A,3510.6929,N,13653.1700,E,2.8,174.7,270224,7.9,W,D*39
$GNRMC,063118.00,A,3510.6921,N,13653.1702,E,2.8,173.2,270224,7.9,W,D*3E
$GNRMC,063119.00,A,3510.6912,N,13653.1707,E,2.8,166.5,270224,7.9,W,D*39
$GNRMC,063120.00,A,3510.6905,N,13653.1710,E,2.8,159.1,270224,7.9,W,D*3B
$GNRMC,063121.00,A,3510.6900,N,13653.1713,E,2.8,156.6,270224,7.9,W,D*34
$GNRMC,063122.00,A,3510.6893,N,13653.1720,E,2.8,152.3,270224,7.9,W,D*3D
$GNRMC,063123.00,A,3510.6885,N,13653.1728,E,2.8,147.5,270224,7.9,W,D*31
$GNRMC,063124.00,A,3510.6878,N,13653.1733,E,2.8,146.3,270224,7.9,W,D*39
$GNRMC,063125.00,A,3510.6871,N,13653.1741,E,2.8,144.9,270224,7.9,W,D*3C
$GNRMC,063126.00,A,3510.6866,N,13653.1749,E,2.6,141.3,270224,7.9,W,D*30
$GNRMC,063127.00,A,3510.6858,N,13653.1758,E,2.6,140.4,270224,7.9,W,D*3A
$GNRMC,063128.00,A,3510.6853,N,13653.1763,E,2.5,140.1,270224,7.9,W,D*30
$GNRMC,063129.00,A,3510.6849,N,13653.1764,E,2.5,137.2,270224,7.9,W,D*3E
$GNRMC,063130.00,A,3510.6844,N,13653.1766,E,2.5,139.3,270224,7.9,W,D*36
$GNRMC,063131.00,A,3510.6836,N,13653.1777,E,2.5,135.7,270224,7.9,W,D*3A
$GNRMC,063132.00,A,3510.6833,N,13653.1784,E,2.5,134.0,270224,7.9,W,D*36
$GNRMC,063133.00,A,3510.6831,N,13653.1787,E,2.4,134.4,270224,7.9,W,D*33
$GNRMC,063134.00,A,3510.6828,N,13653.1793,E,2.4,132.5,270224,7.9,W,D*3E
$GNRMC,063135.00,A,3510.6826,N,13653.1796,E,2.4,134.5,270224,7.9,W,D*32
$GNRMC,063136.00,A,3510.6823,N,13653.1797,E,2.4,138.8,270224,7.9,W,D*34
$GNRMC,063137.00,A,3510.6822,N,13653.1805,E,0.9,130.6,270224,7.9,W,D*39
$GNRMC,063138.00,A,3510.6821,N,13653.1809,E,0.8,120.0,270224,7.9,W,D*3F
$GNRMC,063139.00,A,3510.6818,N,13653.1812,E,0.8,137.7,270224,7.9,W,D*3F
$GNRMC,063140.00,A,3510.6815,N,13653.1814,E,0.0,146.6,270224,7.9,W,D*35
$GNRMC,063141.00,A,3510.6816,N,13653.1816,E,0.0,149.7,270224,7.9,W,D*3B
$GNRMC,063142.00,A,3510.6818,N,13653.1817,E,0.2,149.7,270224,7.9,W,D*35
$GNRMC,063143.00,A,3510.6818,N,13653.1817,E,0.0,149.7,270224,7.9,W,D*36
$GNRMC,063144.00,A,3510.6818,N,13653.1816,E,0.6,285.3,270224,7.9,W,D*31
$GNRMC,063145.00,A,3510.6819,N,13653.1811,E,0.5,283.2,270224,7.9,W,D*32
$GNRMC,063146.00,A,3510.6818,N,13653.1807,E,0.0,281.1,270224,7.9,W,D*33
$GNRMC,063147.00,A,3510.6813,N,13653.1808,E,0.3,281.1,270224,7.9,W,D*35
$GNRMC,063148.00,A,3510.6808,N,13653.1809,E,1.7,281.1,270224,7.9,W,D*34
$GNRMC,063149.00,A,3510.6802,N,13653.1810,E,2.4,174.7,270224,7.9,W,D*38
$GNRMC,063150.00,A,3510.6793,N,13653.1811,E,2.8,173.8,270224,7.9,W,D*32
$GNRMC,063151.00,A,3510.6785,N,13653.1812,E,2.8,175.0,270224,7.9,W,D*39
$GNRMC,063152.00,A,3510.6776,N,13653.1813,E,3.0,175.8,270224,7.9,W,D*36
$GNRMC,063153.00,A,3510.6766,N,13653.1815,E,2.4,177.3,270224,7.9,W,D*3C
$GNRMC,063154.00,A,3510.6757,N,13653.1813,E,2.8,181.5,270224,7.9,W,D*3C
$GNRMC,063155.00,A,3510.6749,N,13653.1812,E,2.8,185.5,270224,7.9,W,D*37
$GNRMC,063156.00,A,3510.6739,N,13653.1813,E,3.0,184.3,270224,7.9,W,D*3C
$GNRMC,063157.00,A,3510.6728,N,13653.1812,E,3.0,186.0,270224,7.9,W,D*3D
$GNRMC,063158.00,A,3510.6719,N,13653.1811,E,3.1,186.8,270224,7.9,W,D*3A
$GNRMC,063159.00,A,3510.6709,N,13653.1809,E,3.1,188.9,270224,7.9,W,D*3C
$GNRMC,063200.00,A,3510.6701,N,13653.1805,E,3.1,191.5,270224,7.9,W,D*33
$GNRMC,063201.00,A,3510.6691,N,13653.1801,E,3.1,195.5,270224,7.9,W,D*3A
$GNRMC,063202.00,A,3510.6684,N,13653.1792,E,3.2,206.2,270224,7.9,W,D*35
$GNRMC,063203.00,A,3510.6676,N,13653.1786,E,3.2,211.1,270224,7.9,W,D*39
$GNRMC,063204.00,A,3510.6669,N,13653.1778,E,3.2,216.7,270224,7.9,W,D*30
$GNRMC,063205.00,A,3510.6662,N,13653.1770,E,3.3,220.1,270224,7.9,W,D*30
$GNRMC,063206.00,A,3510.6657,N,13653.1765,E,3.3,222.1,270224,7.9,W,D*33
$GNRMC,063207.00,A,3510.6650,N,13653.1756,E,3.3,219.3,270224,7.9,W,D*3F
$GNRMC,063208.00,A,3510.6643,N,13653.1748,E,3.3,220.9,270224,7.9,W,D*3D
$GNRMC,063209.00,A,3510.6637,N,13653.1739,E,3.3,222.7,270224,7.9,W,D*35
$GNRMC,063210.00,A,3510.6629,N,13653.1733,E,3.3,226.6,270224,7.9,W,D*3D
$GNRMC,063211.00,A,3510.6621,N,13653.1724,E,3.3,224.0,270224,7.9,W,D*36
$GNRMC,063212.00,A,3510.6614,N,13653.1714,E,3.3,223.9,270224,7.9,W,D*3E
$GNRMC,063213.00,A,3510.6608,N,13653.1706,E,3.3,222.8,270224,7.9,W,D*31
$GNRMC,063214.00,A,3510.6601,N,13653.1696,E,3.3,222.0,270224,7.9,W,D*3F
$GNRMC,063215.00,A,3510.6595,N,13653.1687,E,3.3,221.8,270224,7.9,W,D*3B
$GNRMC,063216.00,A,3510.6587,N,13653.1682,E,3.3,218.5,270224,7.9,W,D*39
$GNRMC,063217.00,A,3510.6578,N,13653.1681,E,3.3,210.4,270224,7.9,W,D*32
$GNRMC,063218.00,A,3510.6571,N,13653.1678,E,3.3,205.5,270224,7.9,W,D*37
$GNRMC,063219.00,A,3510.6562,N,13653.1678,E,3.2,198.8,270224,7.9,W,D*3F
$GNRMC,063220.00,A,3510.6553,N,13653.1678,E,3.2,192.3,270224,7.9,W,D*36
$GNRMC,063221.00,A,3510.6544,N,13653.1680,E,3.2,187.6,270224,7.9,W,D*37
$GNRMC,063222.00,A,3510.6534,N,13653.1678,E,3.2,184.9,270224,7.9,W,D*38
$GNRMC,063223.00,A,3510.6524,N,13653.1678,E,3.1,183.9,270224,7.9,W,D*3C
$GNRMC,063224.00,A,3510.6517,N,13653.1679,E,3.0,186.0,270224,7.9,W,D*37
$GNRMC,063225.00,A,3510.6507,N,13653.1678,E,3.0,186.8,270224,7.9,W,D*3E
$GNRMC,063226.00,A,3510.6497,N,13653.1677,E,3.0,187.3,270224,7.9,W,D*30
$GNRMC,063227.00,A,3510.6488,N,13653.1678,E,3.0,185.7,270224,7.9,W,D*36
$GNRMC,063228.00,A,3510.6479,N,13653.1680,E,3.0,183.8,270224,7.9,W,D*39
$GNRMC,063229.00,A,3510.6469,N,13653.1684,E,3.0,184.7,270224,7.9,W,D*35
$GNRMC,063230.00,A,3510.6463,N,13653.1683,E,3.0,185.8,270224,7.9,W,D*3E
$GNRMC,063231.00,A,3510.6452,N,13653.1684,E,3.1,184.1,270224,7.9,W,D*33
$GNRMC,063232.00,A,3510.6444,N,13653.1686,E,3.1,183.9,270224,7.9,W,D*3A
$GNRMC,063233.00,A,3510.6433,N,13653.1687,E,3.0,185.1,270224,7.9,W,D*35
$GNRMC,063234.00,A,3510.6426,N,13653.1687,E,3.0,186.1,270224,7.9,W,D*35
$GNRMC,063235.00,A,3510.6420,N,13653.1686,E,3.0,189.6,270224,7.9,W,D*3B
$GNRMC,063236.00,A,3510.6414,N,13653.1684,E,2.9,193.7,270224,7.9,W,D*3F
$GNRMC,063237.00,A,3510.6407,N,13653.1682,E,2.6,200.7,270224,7.9,W,D*3C
$GNRMC,063238.00,A,3510.6403,N,13653.1680,E,2.5,211.0,270224,7.9,W,D*31
$GNRMC,063239.00,A,3510.6401,N,13653.1674,E,2.3,226.1,270224,7.9,W,D*3A
$GNRMC,063240.00,A,3510.6400,N,13653.1674,E,2.3,243.7,270224,7.9,W,D*30
$GNRMC,063241.00,A,3510.6398,N,13653.1671,E,1.9,243.4,270224,7.9,W,D*38
$GNRMC,063242.00,A,3510.6396,N,13653.1667,E,1.9,235.0,270224,7.9,W,D*37
$GNRMC,063243.00,A,3510.6387,N,13653.1659,E,2.0,220.8,270224,7.9,W,D*3D
$GNRMC,063244.00,A,3510.6371,N,13653.1654,E,5.3,204.6,270224,7.9,W,D*32
$GNRMC,063245.00,A,3510.6351,N,13653.1654,E,8.4,192.9,270224,7.9,W,D*38
$GNRMC,063246.00,A,3510.6331,N,13653.1652,E,8.4,188.2,270224,7.9,W,D*3B
$GNRMC,063247.00,A,3510.6309,N,13653.1655,E,7.9,183.7,270224,7.9,W,D*3A
$GNRMC,063248.00,A,3510.6292,N,13653.1654,E,7.9,182.9,270224,7.9,W,D*38
$GNRMC,063249.00,A,3510.6269,N,13653.1649,E,7.9,183.4,270224,7.9,W,D*3D
$GNRMC,063250.00,A,3510.6251,N,13653.1648,E,6.6,181.9,270224,7.9,W,D*3E
$GNRMC,063251.00,A,3510.6232,N,13653.1648,E,6.6,182.1,270224,7.9,W,D*31
$GNRMC,063252.00,A,3510.6215,N,13653.1650,E,6.6,181.7,270224,7.9,W,D*3B
$GNRMC,063253.00,A,3510.6199,N,13653.1650,E,6.6,180.6,270224,7.9,W,D*3D
$GNRMC,063254.00,A,3510.6185,N,13653.1648,E,5.7,181.0,270224,7.9,W,D*3B
$GNRMC,063255.00,A,3510.6174,N,13653.1648,E,4.5,180.6,270224,7.9,W,D*30
$GNRMC,063256.00,A,3510.6164,N,13653.1651,E,3.9,179.7,270224,7.9,W,D*36
$GNRMC,063257.00,A,3510.6157,N,13653.1655,E,3.1,177.5,270224,7.9,W,D*37
$GNRMC,063258.00,A,3510.6153,N,13653.1656,E,2.3,177.6,270224,7.9,W,D*3F
$GNRMC,063259.00,A,3510.6149,N,13653.1655,E,1.3,181.4,270224,7.9,W,D*3E
$GNRMC,063300.00,A,3510.6148,N,13653.1654,E,0.9,202.8,270224,7.9,W,D*3C
$GNRMC,063301.00,A,3510.6148,N,13653.1654,E,0.0,211.1,270224,7.9,W,D*3F
$GNRMC,063302.00,A,3510.6147,N,13653.1653,E,0.4,187.5,270224,7.9,W,D*38
$GNRMC,063303.00,A,3510.6145,N,13653.1654,E,0.0,176.5,270224,7.9,W,D*36
$GNRMC,063304.00,A,3510.6142,N,13653.1658,E,0.0,186.6,270224,7.9,W,D*36
$GNRMC,063305.00,A,3510.6140,N,13653.1663,E,0.6,233.5,270224,7.9,W,D*35
$GNRMC,063306.00,A,3510.6138,N,13653.1666,E,0.5,233.5,270224,7.9,W,D*3F
$GNRMC,063307.00,A,3510.6137,N,13653.1666,E,0.0,233.5,270224,7.9,W,D*34
$GNRMC,063308.00,A,3510.6137,N,13653.1665,E,0.4,242.7,270224,7.9,W,D*38
$GNRMC,063309.00,A,3510.6135,N,13653.1668,E,0.0,268.1,270224,7.9,W,D*3C
$GNRMC,063310.00,A,3510.6134,N,13653.1667,E,0.3,270.1,270224,7.9,W,D*30
$GNRMC,063311.00,A,3510.6135,N,13653.1668,E,0.3,272.4,270224,7.9,W,D*38
$GNRMC,063312.00,A,3510.6136,N,13653.1668,E,0.3,329.9,270224,7.9,W,D*3A
$GNRMC,063313.00,A,3510.6153,N,13653.1654,E,0.0,3.1,270224,7.9,W,D*37
$GNRMC,063314.00,A,3510.6153,N,13653.1654,E,0.3,322.4,270224,7.9,W,D*36
$GNRMC,063315.00,A,3510.6153,N,13653.1654,E,0.3,301.4,270224,7.9,W,D*36
$GNRMC,063316.00,A,3510.6153,N,13653.1654,E,1.2,286.8,270224,7.9,W,D*37
$GNRMC,063317.00,A,3510.6153,N,13653.1654,E,0.3,277.3,270224,7.9,W,D*33
$GNRMC,063318.00,A,3510.6153,N,13653.1654,E,1.1,284.6,270224,7.9,W,D*36
$GNRMC,063319.00,A,3510.6153,N,13653.1654,E,0.3,289.8,270224,7.9,W,D*37
$GNRMC,063332.00,A,3510.6153,N,13653.1655,E,0.7,71.4,270224,7.9,W,D*02
$GNRMC,063333.01,A,3510.6153,N,13653.1655,E,1.1,93.7,270224,7.9,W,D*0A
$GNRMC,063334.00,A,3510.6153,N,13653.1655,E,0.7,93.7,270224,7.9,W,D*0B
$GNRMC,063335.00,A,3510.6153,N,13653.1655,E,0.9,104.7,270224,7.9,W,D*3B
$GNRMC,063336.00,A,3510.6153,N,13653.1655,E,0.9,84.1,270224,7.9,W,D*07
$GNRMC,063337.00,A,3510.6153,N,13653.1655,E,0.0,40.1,270224,7.9,W,D*07
$GNRMC,063338.00,A,3510.6153,N,13653.1655,E,0.4,77.4,270224,7.9,W,D*0D
$GNRMC,063339.00,A,3510.6153,N,13653.1655,E,0.9,108.1,270224,7.9,W,D*3D
$GNRMC,063340.00,A,3510.6153,N,13653.1655,E,0.0,107.9,270224,7.9,W,D*3D
$GNRMC,063341.00,A,3510.6153,N,13653.1655,E,0.9,115.0,270224,7.9,W,D*3F
$GNRMC,063342.00,A,3510.6153,N,13653.1655,E,0.7,115.0,270224,7.9,W,D*32
$GNRMC,063343.00,A,3510.6153,N,13653.1655,E,0.6,115.0,270224,7.9,W,D*32
$GNRMC,063344.00,A,3510.6153,N,13653.1655,E,0.6,83.0,270224,7.9,W,D*0B
$GNRMC,063345.00,A,3510.6153,N,13653.1655,E,0.4,43.5,270224,7.9,W,D*01
$GNRMC,063346.00,A,3510.6153,N,13653.1655,E,0.4,90.7,270224,7.9,W,D*0E
$GNRMC,063347.00,A,3510.6153,N,13653.1655,E,0.7,116.9,270224,7.9,W,D*3D
$GNRMC,063348.00,A,3510.6153,N,13653.1655,E,0.7,127.4,270224,7.9,W,D*3D
$GNRMC,063349.00,A,3510.6153,N,13653.1655,E,0.6,117.6,270224,7.9,W,D*3C
$GNRMC,063350.01,A,3510.6153,N,13653.1655,E,0.7,107.1,270224,7.9,W,D*32
$GNRMC,063351.00,A,3510.6153,N,13653.1655,E,0.7,107.1,270224,7.9,W,D*32
$GNRMC,063352.00,A,3510.6153,N,13653.1655,E,0.8,107.1,270224,7.9,W,D*3E
$GNRMC,063353.00,A,3510.6153,N,13653.1655,E,0.0,304.9,270224,7.9,W,D*3E
$GNRMC,063354.00,A,3510.6153,N,13653.1655,E,0.8,301.7,270224,7.9,W,D*3A
$GNRMC,063355.00,A,3510.6153,N,13653.1656,E,0.7,302.0,270224,7.9,W,D*33
$GNRMC,063356.00,A,3510.6153,N,13653.1656,E,0.7,314.8,270224,7.9,W,D*3F
$GNRMC,063357.00,A,3510.6153,N,13653.1656,E,0.6,310.7,270224,7.9,W,D*34
$GNRMC,063358.00,A,3510.6153,N,13653.1656,E,0.5,279.1,270224,7.9,W,D*30
$GNRMC,063359.00,A,3510.6153,N,13653.1656,E,0.4,279.1,270224,7.9,W,D*30
$GNRMC,063400.00,A,3510.6153,N,13653.1656,E,0.4,230.3,270224,7.9,W,D*34
$GNRMC,063401.00,A,3510.6153,N,13653.1656,E,2.1,203.6,270224,7.9,W,D*37
$GNRMC,063402.01,A,3510.6153,N,13653.1656,E,2.5,183.4,270224,7.9,W,D*38
$GNRMC,063403.00,A,3510.6135,N,13653.1702,E,4.8,177.4,270224,7.9,W,D*38
$GNRMC,063404.00,A,3510.6124,N,13653.1702,E,8.2,177.1,270224,7.9,W,D*3C
$GNRMC,063405.00,A,3510.6110,N,13653.1702,E,9.2,177.9,270224,7.9,W,D*33
$GNRMC,063406.00,A,3510.6074,N,13653.1702,E,9.6,179.1,270224,7.9,W,D*31
$GNRMC,063407.00,A,3510.6051,N,13653.1700,E,9.6,180.7,270224,7.9,W,D*35
$GNRMC,063408.00,A,3510.6030,N,13653.1698,E,8.1,180.9,270224,7.9,W,D*35
$GNRMC,063409.00,A,3510.6010,N,13653.1693,E,7.0,183.8,270224,7.9,W,D*31
$GNRMC,063410.00,A,3510.5985,N,13653.1687,E,7.0,187.5,270224,7.9,W,D*33
$GNRMC,063411.00,A,3510.5957,N,13653.1682,E,8.7,188.9,270224,7.9,W,D*33
$GNRMC,063412.00,A,3510.5929,N,13653.1674,E,8.7,189.6,270224,7.9,W,D*3E
$GNRMC,063413.00,A,3510.5900,N,13653.1670,E,9.2,188.6,270224,7.9,W,D*35
$GNRMC,063414.00,A,3510.5870,N,13653.1670,E,9.6,186.3,270224,7.9,W,D*3B
$GNRMC,063415.00,A,3510.5839,N,13653.1669,E,9.7,184.4,270224,7.9,W,D*3B
$GNRMC,063416.00,A,3510.5808,N,13653.1667,E,10.0,182.9,270224,7.9,W,D*00
$GNRMC,063417.00,A,3510.5777,N,13653.1669,E,10.1,179.1,270224,7.9,W,D*05
$GNRMC,063418.00,A,3510.5747,N,13653.1676,E,10.1,175.9,270224,7.9,W,D*03
$GNRMC,063419.00,A,3510.5718,N,13653.1680,E,10.3,175.2,270224,7.9,W,D*08
$GNRMC,063420.03,A,3510.5688,N,13653.1680,E,10.6,177.1,270224,7.9,W,D*0D
$GNRMC,063421.03,A,3510.5657,N,13653.1681,E,10.6,178.8,270224,7.9,W,D*09
$GNRMC,063422.00,A,3510.5625,N,13653.1680,E,10.6,179.9,270224,7.9,W,D*0D
$GNRMC,063423.00,A,3510.5593,N,13653.1681,E,10.8,180.8,270224,7.9,W,D*0A
$GNRMC,063424.00,A,3510.5562,N,13653.1678,E,10.8,181.8,270224,7.9,W,D*04
$GNRMC,063425.01,A,3510.5533,N,13653.1677,E,10.6,182.1,270224,7.9,W,D*0B
$GNRMC,063426.00,A,3510.5506,N,13653.1676,E,9.9,182.4,270224,7.9,W,D*3C
$GNRMC,063427.00,A,3510.5483,N,13653.1677,E,8.7,179.5,270224,7.9,W,D*3A
$GNRMC,063428.00,A,3510.5467,N,13653.1685,E,6.8,170.0,270224,7.9,W,D*3F
$GNRMC,063429.00,A,3510.5458,N,13653.1700,E,6.8,150.0,270224,7.9,W,D*3C
$GNRMC,063430.00,A,3510.5455,N,13653.1725,E,7.1,123.4,270224,7.9,W,D*36
$GNRMC,063431.00,A,3510.5452,N,13653.1753,E,9.2,108.9,270224,7.9,W,D*38
$GNRMC,063432.00,A,3510.5450,N,13653.1785,E,9.3,100.6,270224,7.9,W,D*34
$GNRMC,063433.00,A,3510.5449,N,13653.1824,E,9.3,95.8,270224,7.9,W,D*0A
$GNRMC,063434.00,A,3510.5445,N,13653.1859,E,9.3,95.3,270224,7.9,W,D*00
$GNRMC,063435.00,A,3510.5442,N,13653.1893,E,9.2,94.1,270224,7.9,W,D*02
$GNRMC,063436.00,A,3510.5440,N,13653.1920,E,9.1,93.2,270224,7.9,W,D*0D
$GNRMC,063437.01,A,3510.5441,N,13653.1948,E,8.5,89.6,270224,7.9,W,D*08
$GNRMC,063438.00,A,3510.5445,N,13653.1967,E,6.6,80.0,270224,7.9,W,D*0D
$GNRMC,063439.00,A,3510.5451,N,13653.1980,E,5.4,68.4,270224,7.9,W,D*03
$GNRMC,063440.00,A,3510.5458,N,13653.1983,E,3.8,52.1,270224,7.9,W,D*01
$GNRMC,063441.00,A,3510.5466,N,13653.1984,E,3.0,36.6,270224,7.9,W,D*07
$GNRMC,063442.00,A,3510.5475,N,13653.1979,E,2.7,14.8,270224,7.9,W,D*0C
$GNRMC,063443.00,A,3510.5479,N,13653.1978,E,2.4,359.0,270224,7.9,W,D*31
$GNRMC,063444.00,A,3510.5481,N,13653.1977,E,1.3,355.3,270224,7.9,W,D*35
$GNRMC,063445.01,A,3510.5485,N,13653.1975,E,0.4,0.2,270224,7.9,W,D*37
