9
$GNGLL,3510.3947,N,13653.8503,E,034105.00,A,D*73
$GNGSA,A,3,07,06,05,11,195,20,196,09,,,,,2.2,1.5,1.6*23
$GPGSV,4,1,13,04,01,037,,05,29,273,23,06,57,095,40,07,20,098,29*75
$GPGSV,4,2,13,09,35,047,29,11,66,342,10,12,05,259,00,13,17,199,18*7A
$GPGSV,4,3,13,17,08,164,23,19,28,173,36,20,52,300,15,29,07,323,00*7E
$GPGSV,4,4,13,30,16,132,26,,,,,,,,,,,,*4B
$GQGSV,2,1,05,02,13,186,31,03,82,156,33,04,74,195,38,07,47,196,26*77
$GQGSV,2,2,05,57,,,36,,,,,,,,,,,,*7A
$GNRMC,034105.00,A,3510.3947,N,13653.8503,E,,127.6,180724,8.1,W,D*10
$GNVTG,127.6,T,135.7,M,,N,,K,D*3A
$GNZDA,034105.00,18,07,2024,,*71
$L1BAT,4.097*22
$L1MAG,0.00,0.00,784,784*36
$GPGGA,034106.04,3510.3947,N,13653.8503,E,2,08,1.5,17.9,M,35.5,M,,*59
$GNGLL,3510.3947,N,13653.8503,E,034106.04,A,D*74
$GNGSA,A,3,07,06,05,11,195,20,196,09,,,,,2.2,1.5,1.6*23
$GPGSV,4,1,13,04,01,037,,05,29,273,19,06,57,095,39,07,20,098,31*7B
$GPGSV,4,2,13,09,35,047,24,11,66,342,14,12,05,259,00,13,17,199,16*7D
$GPGSV,4,3,13,17,08,164,27,19,28,173,33,20,52,300,16,29,07,323,00*7C
$GPGSV,4,4,13,30,16,132,25,,,,,,,,,,,,*48
$GQGSV,2,1,05,02,13,186,29,03,82,156,33,04,74,195,36,07,47,196,23*75
$GQGSV,2,2,05,57,,,33,,,,,,,,,,,,*7F
$GNRMC,034106.04,A,3510.3947,N,13653.8503,E,1.0,144.2,180724,8.1,W,D*39
$GNVTG,144.2,T,152.3,M,1.0,N,1.8,K,D*36
$GNZDA,034106.04,18,07,2024,,*76
$L1BAT,4.097*22
$L1MAG,0.00,0.00,569,569*36
$GPGGA,034107.03,3510.3947,N,13653.8503,E,2,08,1.5,17.8,M,35.5,M,,*5E
$GNGLL,3510.3947,N,13653.8503,E,034107.03,A,D*72
$GNGSA,A,3,07,06,05,11,195,20,196,09,,,,,2.2,1.5,1.6*23
$GPGSV,4,1,13,04,01,037,,05,29,273,13,06,57,095,39,07,20,098,31*71
$GPGSV,4,2,13,09,35,047,23,11,66,342,16,12,05,259,00,13,17,199,16*78
$GPGSV,4,3,13,17,08,164,26,19,28,173,34,20,52,300,18,29,07,323,00*74
$GPGSV,4,4,13,30,16,132,23,,,,,,,,,,,,*4E
$GQGSV,2,1,05,02,13,186,29,03,82,156,32,04,74,195,35,07,47,196,23*77
$GQGSV,2,2,05,57,,,33,,,,,,,,,,,,*7F
$GNRMC,034107.03,A,3510.3947,N,13653.8503,E,1.2,155.2,180724,8.1,W,D*3D
$GNVTG,155.2,T,163.3,M,1.2,N,2.3,K,D*3E
$GNZDA,034107.03,18,07,2024,,*70
$L1BAT,4.097*22
$L1MAG,0.00,0.00,887,887*36
$GPGGA,034108.00,3510.3939,N,13653.8536,E,2,08,1.5,17.8,M,35.5,M,,*5D
$GNGLL,3510.3939,N,13653.8536,E,034108.00,A,D*71
$GNGSA,A,3,07,06,05,11,195,20,196,09,,,,,2.2,1.5,1.6*23
$GPGSV,4,1,13,04,01,037,,05,29,273,17,06,57,095,39,07,20,098,32*76
$GPGSV,4,2,13,09,35,047,25,11,66,342,13,12,05,259,00,13,17,199,12*7F
$GPGSV,4,3,13,17,08,164,24,19,28,173,35,20,52,300,15,29,07,323,00*7A
$GPGSV,4,4,13,30,16,132,23,,,,,,,,,,,,*4E
$GQGSV,2,1,05,02,13,186,30,03,82,156,33,04,74,195,36,07,47,196,26*78
$GQGSV,2,2,05,57,,,34,,,,,,,,,,,,*78
$GNRMC,034108.00,A,3510.3939,N,13653.8536,E,0.0,158.1,180724,8.1,W,D*33
$GNVTG,158.1,T,166.2,M,0.0,N,0.0,K,D*36
$GNZDA,034108.00,18,07,2024,,*7C
$L1BAT,4.097*22
$L1MAG,0.00,0.00,1062,1062*36
$GPGGA,034109.00,3510.3943,N,13653.8535,E,2,08,1.5,17.8,M,35.5,M,,*52
$GNGLL,3510.3943,N,13653.8535,E,034109.00,A,D*7E
$GNGSA,A,3,07,06,05,11,195,20,196,09,,,,,2.2,1.5,1.6*23
$GPGSV,4,1,13,04,01,037,,05,29,273,22,06,57,095,42,07,20,098,34*7A
$GPGSV,4,2,13,09,35,047,27,11,66,342,16,12,05,259,00,13,17,199,16*7C
$GPGSV,4,3,13,17,08,164,26,19,28,173,38,20,52,300,14,29,07,323,10*75
$GPGSV,4,4,13,30,16,132,25,,,,,,,,,,,,*48
$GQGSV,2,1,05,02,13,186,33,03,82,156,35,04,74,195,40,07,47,196,30*7B
$GQGSV,2,2,05,57,,,36,,,,,,,,,,,,*7A
$GNRMC,034109.00,A,3510.3943,N,13653.8535,E,0.4,165.9,180724,8.1,W,D*3E
$GNVTG,165.9,T,174.0,M,0.4,N,0.7,K,D*32
$GNZDA,034109.00,18,07,2024,,*7D
$L1BAT,4.097*22
$L1MAG,0.00,0.00,1078,1078*36
$GPGGA,034110.00,3510.3945,N,13653.8530,E,2,07,1.6,17.7,M,35.5,M,,*5A
$GNGLL,3510.3945,N,13653.8530,E,034110.00,A,D*75
$GNGSA,A,3,07,06,05,11,195,196,09,,,,,,2.3,1.6,1.6*23
$GPGSV,4,1,13,04,01,037,,05,29,273,24,06,57,095,42,07,20,098,34*7C
$GPGSV,4,2,13,09,35,047,28,11,66,342,15,12,05,259,00,13,17,199,19*7F
$GPGSV,4,3,13,17,08,164,26,19,28,173,39,20,52,300,00,29,07,323,10*71
$GPGSV,4,4,13,30,16,132,27,,,,,,,,,,,,*4A
$GQGSV,2,1,05,02,13,186,34,03,82,156,34,04,74,195,39,07,47,196,30*73
$GQGSV,2,2,05,57,,,35,,,,,,,,,,,,*79
$GNRMC,034110.00,A,3510.3945,N,13653.8530,E,0.0,172.7,180724,8.1,W,D*39
$GNVTG,172.7,T,180.8,M,0.0,N,0.0,K,D*3A
$GNZDA,034110.00,18,07,2024,,*75
$L1BAT,4.097*22
$L1MAG,0.00,0.00,1086,1086*36
$GPGGA,034111.00,3510.3947,N,13653.8527,E,2,08,1.5,17.5,M,35.5,M,,*51
$GNGLL,3510.3947,N,13653.8527,E,034111.00,A,D*70
$GNGSA,A,3,07,06,05,11,195,20,196,09,,,,,2.2,1.5,1.6*23
$GPGSV,4,1,13,04,01,037,,05,29,273,27,06,57,095,42,07,20,098,33*78
$GPGSV,4,2,13,09,35,047,28,11,66,342,11,12,05,259,00,13,17,199,17*75
$GPGSV,4,3,13,17,08,164,26,19,28,173,38,20,52,300,08,29,07,323,17*7F
$GPGSV,4,4,13,30,16,132,28,,,,,,,,,,,,*45
$GQGSV,2,1,05,02,13,186,34,03,82,156,35,04,74,195,39,07,47,196,30*72
$GQGSV,2,2,05,57,,,36,,,,,,,,,,,,*7A
$GNRMC,034111.00,A,3510.3947,N,13653.8527,E,0.0,193.6,180724,8.1,W,D*32
$GNVTG,193.6,T,201.7,M,0.0,N,0.0,K,D*31
$GNZDA,034111.00,18,07,2024,,*74
$L1BAT,4.097*22
$L1MAG,0.00,0.00,1124,1124*36
$GPGGA,034112.00,3510.3952,N,13653.8529,E,2,08,1.5,17.3,M,35.5,M,,*5E
$GNGLL,3510.3952,N,13653.8529,E,034112.00,A,D*79
$GNGSA,A,3,07,06,05,11,195,20,196,09,,,,,2.2,1.5,1.6*23
$GPGSV,4,1,13,04,01,037,,05,29,273,30,06,57,095,42,07,20,098,32*7F
$GPGSV,4,2,13,09,35,047,30,11,66,342,12,12,05,259,00,13,17,199,17*7F
$GPGSV,4,3,13,17,08,164,27,19,28,173,39,20,52,300,12,29,07,323,20*70
$GPGSV,4,4,13,30,16,132,27,,,,,,,,,,,,*4A
$GQGSV,2,1,05,02,13,186,36,03,82,156,36,04,74,195,41,07,47,196,31*7D
$GQGSV,2,2,05,57,,,36,,,,,,,,,,,,*7A
$GNRMC,034112.00,A,3510.3952,N,13653.8529,E,0.5,200.7,180724,8.1,W,D*36
$GNVTG,200.7,T,208.8,M,0.5,N,1.0,K,D*3B
$GNZDA,034112.00,18,07,2024,,*77
$L1BAT,4.097*22
$L1MAG,0.00,0.00,1172,1172*36
$GPGGA,034113.01,3510.3952,N,13653.8529,E,2,08,1.5,17.3,M,35.5,M,,*5E
$GNGLL,3510.3952,N,13653.8529,E,034113.01,A,D*79
$GNGSA,A,3,07,06,05,11,195,20,196,09,,,,,2.2,1.5,1.6*23
$GPGSV,4,1,13,04,01,037,,05,29,273,32,06,57,095,42,07,20,098,32*7D
$GPGSV,4,2,13,09,35,047,31,11,66,342,12,12,05,259,07,13,17,199,16*78
$GPGSV,4,3,13,17,08,164,26,19,28,173,39,20,52,300,12,29,07,323,07*74
$GPGSV,4,4,13,30,16,132,27,,,,,,,,,,,,*4A
$GQGSV,2,1,05,02,13,186,36,03,82,156,36,04,74,195,42,07,47,196,31*7E
$GQGSV,2,2,05,57,,,37,,,,,,,,,,,,*7B
$GNRMC,034113.01,A,3510.3952,N,13653.8529,E,0.5,196.4,180724,8.1,W,D*39
$GNVTG,196.4,T,204.5,M,0.5,N,1.0,K,D*35
$GNZDA,034113.01,18,07,2024,,*77
$L1BAT,4.097*22
$L1MAG,0.00,0.00,1193,1193*36
$GPGGA,034114.00,3510.3952,N,13653.8529,E,2,08,1.5,17.4,M,35.5,M,,*5F
$GNGLL,3510.3952,N,13653.8529,E,034114.00,A,D*7F
$GNGSA,A,3,07,06,05,11,195,20,196,09,,,,,2.2,1.5,1.6*23
$GPGSV,4,1,13,04,01,037,,05,29,273,35,06,57,095,43,07,20,098,31*78
$GPGSV,4,2,13,09,35,047,32,11,66,342,15,12,05,259,00,13,17,199,17*7A
$GPGSV,4,3,13,17,08,164,25,19,28,173,38,20,52,300,19,29,07,323,11*7A
$GPGSV,4,4,13,30,16,132,30,,,,,,,,,,,,*4C
$GQGSV,2,1,05,02,13,186,35,03,82,156,36,04,74,195,42,07,47,196,31*7D
$GQGSV,2,2,05,57,,,37,,,,,,,,,,,,*7B
$GNRMC,034114.00,A,3510.3952,N,13653.8529,E,0.7,178.4,180724,8.1,W,D*3D
$GNVTG,178.4,T,186.6,M,0.7,N,1.3,K,D*3E
$GNZDA,034114.00,18,07,2024,,*71
$L1BAT,4.097*22
$L1MAG,0.00,0.00,1208,1208*36
$GPGGA,034115.00,3510.3952,N,13653.8529,E,2,07,1.6,17.5,M,35.5,M,,*53
$GNGLL,3510.3952,N,13653.8529,E,034115.00,A,D*7E
$GNGSA,A,3,07,06,05,195,20,196,09,,,,,,2.4,1.6,1.8*28
$GPGSV,4,1,13,04,01,037,,05,29,273,40,06,57,095,44,07,20,098,33*7F
$GPGSV,4,2,13,09,35,047,31,11,66,342,00,12,05,259,00,13,17,199,17*7D
$GPGSV,4,3,13,17,08,164,19,19,28,173,39,20,52,300,28,29,07,323,18*7F
$GPGSV,4,4,13,30,16,132,33,,,,,,,,,,,,*4F
$GQGSV,2,1,05,02,13,186,36,03,82,156,39,04,74,195,45,07,47,196,32*75
$GQGSV,2,2,05,57,,,39,,,,,,,,,,,,*75
$GNRMC,034115.00,A,3510.3952,N,13653.8529,E,0.5,168.9,180724,8.1,W,D*32
$GNVTG,168.9,T,177.0,M,0.5,N,0.8,K,D*32
$GNZDA,034115.00,18,07,2024,,*70
$L1BAT,4.097*22
$L1MAG,0.00,0.00,1198,1198*36
$GPGGA,034116.01,3510.3952,N,13653.8529,E,2,08,1.5,17.6,M,35.5,M,,*5E
$GNGLL,3510.3952,N,13653.8529,E,034116.01,A,D*7C
$GNGSA,A,3,07,06,05,11,195,20,196,09,,,,,2.2,1.5,1.6*23
$GPGSV,4,1,13,04,01,037,,05,29,273,36,06,57,095,45,07,20,098,33*7F
$GPGSV,4,2,13,09,35,047,30,11,66,342,12,12,05,259,08,13,17,199,19*79
$GPGSV,4,3,13,17,08,164,16,19,28,173,38,20,52,300,27,29,07,323,17*71
$GPGSV,4,4,13,30,16,132,31,,,,,,,,,,,,*4D
$GQGSV,2,1,05,02,13,186,30,03,82,156,39,04,74,195,44,07,47,196,29*78
$GQGSV,2,2,05,57,,,40,,,,,,,,,,,,*7B
$GNRMC,034116.01,A,3510.3952,N,13653.8529,E,0.4,157.2,180724,8.1,W,D*36
$GNVTG,157.2,T,165.3,M,0.4,N,0.7,K,D*3B
$GNZDA,034116.01,18,07,2024,,*72
$L1BAT,4.097*22
$L1MAG,0.00,0.00,1216,1216*36
$GPGGA,034117.02,3510.3952,N,13653.8529,E,2,08,1.5,17.8,M,35.5,M,,*52
$GNGLL,3510.3952,N,13653.8529,E,034117.02,A,D*7E
$GNGSA,A,3,07,06,05,11,195,20,196,09,,,,,2.2,1.5,1.6*23
$GPGSV,4,1,13,04,01,037,,05,29,273,34,06,57,095,46,07,20,098,34*79
$GPGSV,4,2,13,09,35,047,32,11,66,342,13,12,05,259,00,13,17,199,22*7A
$GPGSV,4,3,13,17,08,164,17,19,28,173,37,20,52,300,26,29,07,323,11*78
$GPGSV,4,4,13,30,16,132,31,,,,,,,,,,,,*4D
$GQGSV,2,1,05,02,13,186,33,03,82,156,39,04,74,195,45,07,47,196,30*72
$GQGSV,2,2,05,57,,,40,,,,,,,,,,,,*7B
$GNRMC,034117.02,A,3510.3952,N,13653.8529,E,0.4,157.2,180724,8.1,W,D*34
$GNVTG,157.2,T,165.3,M,0.4,N,0.7,K,D*3B
$GNZDA,034117.02,18,07,2024,,*70
$L1BAT,4.097*22
$L1MAG,0.00,0.00,1200,1200*36
$GPGGA,034118.00,3510.3952,N,13653.8529,E,2,08,1.5,17.9,M,35.5,M,,*5E
$GNGLL,3510.3952,N,13653.8529,E,034118.00,A,D*73
$GNGSA,A,3,07,06,05,11,195,20,196,09,,,,,2.2,1.5,1.6*23
$GPGSV,4,1,13,04,01,037,,05,29,273,33,06,57,095,46,07,20,098,35*7F
$GPGSV,4,2,13,09,35,047,31,11,66,342,12,12,05,259,09,13,17,199,24*77
$GPGSV,4,3,13,17,08,164,13,19,28,173,36,20,52,300,25,29,07,323,00*7E
$GPGSV,4,4,13,30,16,132,33,,,,,,,,,,,,*4F
$GQGSV,2,1,05,02,13,186,35,03,82,156,40,04,74,195,46,07,47,196,31*78
$GQGSV,2,2,05,57,,,40,,,,,,,,,,,,*7B
$GNRMC,034118.00,A,3510.3952,N,13653.8529,E,0.4,157.2,180724,8.1,W,D*39
$GNVTG,157.2,T,165.3,M,0.4,N,0.7,K,D*3B
$GNZDA,034118.00,18,07,2024,,*7D
$L1BAT,4.097*22
$L1MAG,0.00,0.00,1170,1170*36
$GPGGA,034119.02,3510.3952,N,13653.8529,E,2,08,1.5,17.9,M,35.5,M,,*5D
$GNGLL,3510.3952,N,13653.8529,E,034119.02,A,D*70
$GNGSA,A,3,07,06,05,11,195,20,196,09,,,,,2.2,1.5,1.6*23
$GPGSV,4,1,13,04,01,037,,05,29,273,32,06,57,095,46,07,20,098,36*7D
$GPGSV,4,2,13,09,35,047,30,11,66,342,15,12,05,259,00,13,17,199,24*78
$GPGSV,4,3,13,17,08,164,16,19,28,173,37,20,52,300,23,29,07,323,12*7F
$GPGSV,4,4,13,30,16,132,32,,,,,,,,,,,,*4E
$GQGSV,2,1,05,02,13,186,35,03,82,156,40,04,74,195,45,07,47,196,31*7B
$GQGSV,2,2,05,57,,,41,,,,,,,,,,,,*7A
$GNRMC,034119.02,A,3510.3952,N,13653.8529,E,0.4,42.0,180724,8.1,W,D*0D
$GNVTG,42.0,T,50.1,M,0.4,N,0.7,K,D*39
$GNZDA,034119.02,18,07,2024,,*7E
$L1BAT,4.097*22
$L1MAG,0.00,0.00,1198,1198*36
$GPGGA,034120.00,3510.3952,N,13653.8529,E,2,08,1.5,17.8,M,35.5,M,,*54
$GNGLL,3510.3952,N,13653.8529,E,034120.00,A,D*78
$GNGSA,A,3,07,06,05,11,195,20,196,09,,,,,2.2,1.5,1.6*23
$GPGSV,4,1,13,04,01,037,,05,29,273,32,06,57,095,46,07,20,098,33*78
$GPGSV,4,2,13,09,35,047,32,11,66,342,21,12,05,259,00,13,17,199,22*7B
$GPGSV,4,3,13,17,08,164,15,19,28,173,41,20,52,300,26,29,07,323,12*78
$GPGSV,4,4,13,30,16,132,32,,,,,,,,,,,,*4E
$GQGSV,2,1,05,02,13,186,37,03,82,156,39,04,74,195,46,07,47,196,34*71
$GQGSV,2,2,05,57,,,40,,,,,,,,,,,,*7B
$GNRMC,034120.00,A,3510.3952,N,13653.8529,E,0.5,16.6,180724,8.1,W,D*03
$GNVTG,16.6,T,24.7,M,0.5,N,0.8,K,D*35
$GNZDA,034120.00,18,07,2024,,*76
$L1BAT,4.097*22
$L1MAG,0.00,0.00,1185,1185*36
$GPGGA,034121.00,3510.3952,N,13653.8529,E,2,08,1.5,17.2,M,35.5,M,,*5F
$GNGLL,3510.3952,N,13653.8529,E,034121.00,A,D*79
$GNGSA,A,3,07,06,05,11,195,20,196,09,,,,,2.2,1.5,1.6*23
$GPGSV,4,1,13,04,01,037,,05,29,273,35,06,57,095,45,07,20,098,30*7F
$GPGSV,4,2,13,09,35,047,33,11,66,342,18,12,05,259,06,13,17,199,18*7F
$GPGSV,4,3,13,17,08,164,14,19,28,173,40,20,52,300,25,29,07,323,16*7F
$GPGSV,4,4,13,30,16,132,29,,,,,,,,,,,,*44
$GQGSV,2,1,05,02,13,186,37,03,82,156,39,04,74,195,45,07,47,196,32*74
$GQGSV,2,2,05,57,,,40,,,,,,,,,,,,*7B
$GNRMC,034121.00,A,3510.3952,N,13653.8529,E,0.0,7.6,180724,8.1,W,D*37
$GNVTG,7.6,T,15.8,M,0.0,N,0.0,K,D*05
$GNZDA,034121.00,18,07,2024,,*77
$L1BAT,4.097*22
$L1MAG,0.00,0.00,1170,1170*36
$GPGGA,034122.00,3510.3952,N,13653.8529,E,2,08,1.5,16.5,M,35.5,M,,*5A
$GNGLL,3510.3952,N,13653.8529,E,034122.00,A,D*7A
$GNGSA,A,3,07,06,05,11,195,20,196,09,,,,,2.2,1.5,1.6*23
$GPGSV,4,1,13,04,01,037,,05,29,273,36,06,57,095,46,07,20,098,29*77
$GPGSV,4,2,13,09,35,047,33,11,66,342,17,12,05,259,06,13,17,199,16*7E
$GPGSV,4,3,13,17,08,164,22,19,28,173,40,20,52,300,23,29,07,323,17*7D
$GPGSV,4,4,13,30,16,132,29,,,,,,,,,,,,*44
$GQGSV,2,1,05,02,13,186,37,03,82,156,39,04,74,195,45,07,47,196,31*77
$GQGSV,2,2,05,57,,,40,,,,,,,,,,,,*7B
$GNRMC,034122.00,A,3510.3952,N,13653.8529,E,0.6,354.8,180724,8.1,W,D*39
$GNVTG,354.8,T,362.9,M,0.6,N,1.1,K,D*3A
$GNZDA,034122.00,18,07,2024,,*74
$L1BAT,4.097*22
$L1MAG,0.00,0.00,1192,1192*36
$GPGGA,034123.00,3510.3952,N,13653.8529,E,2,08,1.5,15.5,M,35.5,M,,*58
$GNGLL,3510.3952,N,13653.8529,E,034123.00,A,D*7B
$GNGSA,A,3,07,06,05,11,195,20,196,09,,,,,2.2,1.5,1.6*23
$GPGSV,4,1,13,04,01,037,,05,29,273,36,06,57,095,46,07,20,098,29*77
$GPGSV,4,2,13,09,35,047,34,11,66,342,13,12,05,259,00,13,17,199,13*7E
$GPGSV,4,3,13,17,08,164,23,19,28,173,39,20,52,300,23,29,07,323,00*74
$GPGSV,4,4,13,30,16,132,29,,,,,,,,,,,,*44
$GQGSV,2,1,05,02,13,186,35,03,82,156,39,04,74,195,45,07,47,196,26*73
$GQGSV,2,2,05,57,,,40,,,,,,,,,,,,*7B
$GNRMC,034123.00,A,3510.3952,N,13653.8529,E,0.0,350.7,180724,8.1,W,D*35
$GNVTG,350.7,T,358.8,M,0.0,N,0.0,K,D*3F
$GNZDA,034123.00,18,07,2024,,*75
$L1BAT,4.097*22
$L1MAG,0.00,0.00,1181,1181*36
$GPGGA,034124.00,3510.3952,N,13653.8529,E,2,08,1.5,14.5,M,35.5,M,,*5E
$GNGLL,3510.3952,N,13653.8529,E,034124.00,A,D*7C
$GNGSA,A,3,07,06,05,11,195,20,196,09,,,,,2.2,1.5,1.6*23
$GPGSV,4,1,13,04,01,037,,05,29,273,36,06,57,095,46,07,20,098,33*7C
$GPGSV,4,2,13,09,35,047,31,11,66,342,08,12,05,259,10,13,17,199,16*75
$GPGSV,4,3,13,17,08,164,24,19,28,173,39,20,52,300,22,29,07,323,13*70
$GPGSV,4,4,13,30,16,132,30,,,,,,,,,,,,*4C
$GQGSV,2,1,05,02,13,186,35,03,82,156,40,04,74,195,46,07,47,196,26*7E
$GQGSV,2,2,05,57,,,42,,,,,,,,,,,,*79
$GNRMC,034124.00,A,3510.3952,N,13653.8529,E,0.6,354.0,180724,8.1,W,D*37
$GNVTG,354.0,T,362.1,M,0.6,N,1.1,K,D*3A
$GNZDA,034124.00,18,07,2024,,*72
$L1BAT,4.097*22
$L1MAG,0.00,0.00,1190,1190*36
$GPGGA,034125.00,3510.3952,N,13653.8529,E,2,08,1.5,13.6,M,35.5,M,,*5B
$GNGLL,3510.3952,N,13653.8529,E,034125.00,A,D*7D
$GNGSA,A,3,07,06,05,11,195,20,196,09,,,,,2.2,1.5,1.6*23
$GPGSV,4,1,13,04,01,037,,05,29,273,37,06,57,095,46,07,20,098,36*78
$GPGSV,4,2,13,09,35,047,24,11,66,342,07,12,05,259,00,13,17,199,15*7C
$GPGSV,4,3,13,17,08,164,23,19,28,173,38,20,52,300,24,29,07,323,12*71
$GPGSV,4,4,13,30,16,132,30,,,,,,,,,,,,*4C
$GQGSV,2,1,05,02,13,186,38,03,82,156,40,04,74,195,45,07,47,196,29*7F
$GQGSV,2,2,05,57,,,42,,,,,,,,,,,,*79
$GNRMC,034125.00,A,3510.3952,N,13653.8529,E,0.5,350.2,180724,8.1,W,D*33
$GNVTG,350.2,T,358.3,M,0.5,N,0.9,K,D*3D
$GNZDA,034125.00,18,07,2024,,*73
$L1BAT,4.097*22
$L1MAG,0.00,0.00,1153,1153*36
$GPGGA,034126.00,3510.3952,N,13653.8529,E,2,08,1.5,12.9,M,35.5,M,,*56
$GNGLL,3510.3952,N,13653.8529,E,034126.00,A,D*7E
$GNGSA,A,3,07,06,05,11,195,20,196,09,,,,,2.2,1.5,1.6*23
$GPGSV,4,1,13,04,01,037,,05,29,273,36,06,57,095,45,07,20,098,36*7A
$GPGSV,4,2,13,09,35,047,17,11,66,342,18,12,05,259,04,13,17,199,18*7B
$GPGSV,4,3,13,17,08,164,22,19,28,173,40,20,52,300,25,29,07,323,10*7C
$GPGSV,4,4,13,30,16,132,28,,,,,,,,,,,,*45
$GQGSV,2,1,05,02,13,186,41,03,82,156,41,04,74,195,44,07,47,196,31*78
$GQGSV,2,2,05,57,,,44,,,,,,,,,,,,*7F
$GNRMC,034126.00,A,3510.3952,N,13653.8529,E,0.6,307.2,180724,8.1,W,D*31
$GNVTG,307.2,T,315.4,M,0.6,N,1.1,K,D*3B
$GNZDA,034126.00,18,07,2024,,*70
$L1BAT,4.097*22
$L1MAG,0.00,0.00,1188,1188*36
$GPGGA,034127.00,3510.3952,N,13653.8529,E,2,08,1.5,12.3,M,35.5,M,,*5D
$GNGLL,3510.3952,N,13653.8529,E,034127.00,A,D*7F
$GNGSA,A,3,07,06,05,11,195,20,196,09,,,,,2.2,1.5,1.6*23
$GPGSV,4,1,13,04,01,037,,05,29,273,36,06,57,095,45,07,20,098,37*7B
$GPGSV,4,2,13,09,35,047,24,11,66,342,18,12,05,259,12,13,17,199,21*76
$GPGSV,4,3,13,17,08,164,23,19,28,173,41,20,52,300,26,29,07,323,14*7B
$GPGSV,4,4,13,30,16,132,26,,,,,,,,,,,,*4B
$GQGSV,2,1,05,02,13,186,40,03,82,156,42,04,74,195,44,07,47,196,32*79
$GQGSV,2,2,05,57,,,42,,,,,,,,,,,,*79
$GNRMC,034127.00,A,3510.3952,N,13653.8529,E,0.6,309.0,180724,8.1,W,D*3C
$GNVTG,309.0,T,317.1,M,0.6,N,1.1,K,D*30
$GNZDA,034127.00,18,07,2024,,*71
$L1BAT,4.097*22
$L1MAG,0.00,0.00,1178,1178*36
$GPGGA,034128.00,3510.3952,N,13653.8529,E,2,08,1.5,11.8,M,35.5,M,,*5A
$GNGLL,3510.3952,N,13653.8529,E,034128.00,A,D*70
$GNGSA,A,3,07,06,05,11,195,20,196,09,,,,,2.2,1.5,1.6*23
$GPGSV,4,1,13,04,01,037,,05,29,273,37,06,57,095,45,07,20,098,37*7A
$GPGSV,4,2,13,09,35,047,28,11,66,342,18,12,05,259,00,13,17,199,22*7A
$GPGSV,4,3,13,17,08,164,21,19,28,173,40,20,52,300,26,29,07,323,00*7D
$GPGSV,4,4,13,30,16,132,27,,,,,,,,,,,,*4A
$GQGSV,2,1,05,02,13,186,41,03,82,156,42,04,74,195,45,07,47,196,32*79
$GQGSV,2,2,05,57,,,42,,,,,,,,,,,,*79
$GNRMC,034128.00,A,3510.3952,N,13653.8529,E,0.0,311.9,180724,8.1,W,D*35
$GNVTG,311.9,T,320.0,M,0.0,N,0.0,K,D*33
$GNZDA,034128.00,18,07,2024,,*7E
$L1BAT,4.097*22
$L1MAG,0.00,0.00,1194,1194*36
$GPGGA,034129.00,3510.3952,N,13653.8529,E,2,08,1.5,11.6,M,35.5,M,,*55
$GNGLL,3510.3952,N,13653.8529,E,034129.00,A,D*71
$GNGSA,A,3,07,06,05,11,195,20,196,09,,,,,2.2,1.5,1.6*23
$GPGSV,4,1,13,04,01,037,,05,29,273,37,06,57,096,46,07,20,098,37*7A
$GPGSV,4,2,13,09,35,046,30,11,67,342,17,12,04,259,07,13,18,199,19*7D
$GPGSV,4,3,13,17,08,164,19,19,28,173,40,20,52,300,27,29,07,323,13*75
$GPGSV,4,4,13,30,16,132,31,,,,,,,,,,,,*4D
$GQGSV,2,1,05,02,13,186,38,03,82,156,41,04,74,195,45,07,47,196,32*74
$GQGSV,2,2,05,57,,,42,,,,,,,,,,,,*79
$GNRMC,034129.00,A,3510.3952,N,13653.8529,E,0.0,334.6,180724,8.1,W,D*3C
$GNVTG,334.6,T,342.7,M,0.0,N,0.0,K,D*38
$GNZDA,034129.00,18,07,2024,,*7F
$L1BAT,4.097*22
$L1MAG,0.00,0.00,1174,1174*36
$GPGGA,034130.00,3510.3952,N,13653.8529,E,2,08,1.5,11.5,M,35.5,M,,*5E
$GNGLL,3510.3952,N,13653.8529,E,034130.00,A,D*79
$GNGSA,A,3,07,06,05,11,195,20,196,09,,,,,2.2,1.5,1.6*23
$GPGSV,4,1,13,04,01,037,,05,29,273,37,06,57,096,46,07,20,098,36*7B
$GPGSV,4,2,13,09,35,046,28,11,67,342,15,12,04,259,00,13,18,199,20*7B
$GPGSV,4,3,13,17,08,164,15,19,28,173,41,20,52,300,29,29,07,323,11*74
$GPGSV,4,4,13,30,16,132,31,,,,,,,,,,,,*4D
$GQGSV,2,1,05,02,13,186,37,03,82,156,41,04,74,195,45,07,47,196,32*7B
$GQGSV,2,2,05,57,,,42,,,,,,,,,,,,*79
$GNRMC,034130.00,A,3510.3952,N,13653.8529,E,0.5,354.3,180724,8.1,W,D*32
$GNVTG,354.3,T,362.4,M,0.5,N,0.9,K,D*36
$GNZDA,034130.00,18,07,2024,,*77
$L1BAT,4.097*22
$L1MAG,0.00,0.00,1174,1174*36
$GPGGA,034131.00,3510.3952,N,13653.8529,E,2,08,1.5,11.5,M,35.5,M,,*5F
$GNGLL,3510.3952,N,13653.8529,E,034131.00,A,D*78
$GNGSA,A,3,07,06,05,11,195,20,196,09,,,,,2.2,1.5,1.6*23
$GPGSV,4,1,13,04,01,037,,05,29,273,37,06,57,096,45,07,20,098,34*7A
$GPGSV,4,2,13,09,35,046,25,11,67,342,18,12,04,259,09,13,18,199,23*71
$GPGSV,4,3,13,17,08,164,20,19,28,173,42,20,52,300,28,29,07,323,11*70
$GPGSV,4,4,13,30,16,132,31,,,,,,,,,,,,*4D
$GQGSV,2,1,05,02,13,186,36,03,82,156,41,04,74,195,45,07,47,196,34*7C
$GQGSV,2,2,05,57,,,42,,,,,,,,,,,,*79
$GNRMC,034131.00,A,3510.3952,N,13653.8529,E,0.4,356.4,180724,8.1,W,D*37
$GNVTG,356.4,T,364.5,M,0.4,N,0.7,K,D*3B
$GNZDA,034131.00,18,07,2024,,*76
$L1BAT,4.097*22
$L1MAG,0.00,0.00,1166,1166*36
$GPGGA,034132.00,3510.3952,N,13653.8529,E,2,08,1.5,11.6,M,35.5,M,,*5F
$GNGLL,3510.3952,N,13653.8529,E,034132.00,A,D*7B
$GNGSA,A,3,07,06,05,11,195,20,196,09,,,,,2.2,1.5,1.6*23
$GPGSV,4,1,13,04,01,037,,05,29,273,34,06,57,096,43,07,20,098,34*7F
$GPGSV,4,2,13,09,35,046,26,11,67,342,17,12,04,259,,13,18,199,22*75
$GPGSV,4,3,13,17,08,164,15,19,28,173,40,20,52,300,29,29,07,323,00*75
$GPGSV,4,4,13,30,16,132,30,,,,,,,,,,,,*4C
$GQGSV,2,1,05,02,13,186,36,03,82,156,42,04,74,195,45,07,47,196,33*78
$GQGSV,2,2,05,57,,,42,,,,,,,,,,,,*79
$GNRMC,034132.00,A,3510.3952,N,13653.8529,E,0.4,36.2,180724,8.1,W,D*07
$GNVTG,36.2,T,44.3,M,0.4,N,0.7,K,D*3F
$GNZDA,034132.00,18,07,2024,,*75
$L1BAT,4.097*22
$L1MAG,0.00,0.00,1182,1182*36
$GPGGA,034133.00,3510.3952,N,13653.8529,E,2,08,1.5,11.9,M,35.5,M,,*51
$GNGLL,3510.3952,N,13653.8529,E,034133.00,A,D*7A
$GNGSA,A,3,07,06,05,11,195,20,196,09,,,,,2.2,1.5,1.6*23
$GPGSV,4,1,13,04,01,037,,05,29,273,32,06,57,096,44,07,20,098,35*7F
$GPGSV,4,2,13,09,35,046,28,11,67,342,18,12,04,259,,13,18,199,22*74
$GPGSV,4,3,13,17,08,164,13,19,28,173,40,20,52,300,29,29,07,323,00*73
$GPGSV,4,4,13,30,16,132,29,,,,,,,,,,,,*44
$GQGSV,2,1,05,02,13,186,38,03,82,156,42,04,74,195,45,07,47,196,34*71
$GQGSV,2,2,05,57,,,42,,,,,,,,,,,,*79
$GNRMC,034133.00,A,3510.3952,N,13653.8529,E,0.3,2.6,180724,8.1,W,D*32
$GNVTG,2.6,T,10.7,M,0.3,N,0.6,K,D*0F
$GNZDA,034133.00,18,07,2024,,*74
$L1BAT,4.097*22
$L1MAG,0.00,0.00,1173,1173*36
$GPGGA,034134.02,3510.3952,N,13653.8529,E,2,08,1.5,12.1,M,35.5,M,,*5F
$GNGLL,3510.3952,N,13653.8529,E,034134.02,A,D*7F
$GNGSA,A,3,07,06,05,11,195,20,196,09,,,,,2.2,1.5,1.6*23
$GPGSV,4,1,13,04,01,037,,05,29,273,31,06,57,096,44,07,20,098,35*7C
$GPGSV,4,2,13,09,35,046,26,11,67,342,17,12,04,259,00,13,18,199,23*74
$GPGSV,4,3,13,17,08,164,13,19,28,173,42,20,52,300,30,29,07,323,00*79
$GPGSV,4,4,13,30,16,132,28,,,,,,,,,,,,*45
$GQGSV,2,1,05,02,13,186,39,03,82,156,41,04,74,195,44,07,47,196,35*73
$GQGSV,2,2,05,57,,,41,,,,,,,,,,,,*7A
$GNRMC,034134.02,A,3510.3952,N,13653.8529,E,0.5,351.6,180724,8.1,W,D*34
$GNVTG,351.6,T,359.7,M,0.5,N,0.9,K,D*3D
$GNZDA,034134.02,18,07,2024,,*71
$L1BAT,4.110*2C
$L1MAG,0.00,0.00,1175,1175*36
$GPGGA,034135.00,3510.3952,N,13653.8529,E,2,08,1.5,12.5,M,35.5,M,,*58
$GNGLL,3510.3952,N,13653.8529,E,034135.00,A,D*7C
$GNGSA,A,3,07,06,05,11,195,20,196,09,,,,,2.2,1.5,1.6*23
$GPGSV,4,1,13,04,01,037,,05,29,273,33,06,57,096,45,07,20,098,34*7E
$GPGSV,4,2,13,09,35,046,24,11,67,342,13,12,04,259,,13,18,199,23*72
$GPGSV,4,3,13,17,08,164,12,19,28,173,41,20,52,300,29,29,07,323,10*72
$GPGSV,4,4,13,30,16,132,29,,,,,,,,,,,,*44
$GQGSV,2,1,05,02,13,186,37,03,82,156,41,04,74,195,44,07,47,196,34*7C
$GQGSV,2,2,05,57,,,41,,,,,,,,,,,,*7A
$GNRMC,034135.00,A,3510.3952,N,13653.8529,E,1.6,349.5,180724,8.1,W,D*3F
$GNVTG,349.5,T,357.6,M,1.6,N,3.1,K,D*31
$GNZDA,034135.00,18,07,2024,,*72
$L1BAT,4.110*2C
$L1MAG,0.00,0.00,1183,1183*36
$GPGGA,034136.00,3510.3952,N,13653.8529,E,2,08,1.5,13.0,M,35.5,M,,*5F
$GNGLL,3510.3952,N,13653.8529,E,034136.00,A,D*7F
$GNGSA,A,3,07,06,05,11,195,20,196,09,,,,,2.2,1.5,1.6*23
$GPGSV,4,1,13,04,01,037,,05,29,273,33,06,57,096,46,07,20,098,32*7B
$GPGSV,4,2,13,09,35,046,31,11,67,342,14,12,04,259,,13,18,199,24*76
$GPGSV,4,3,13,17,08,164,17,19,28,173,40,20,52,300,28,29,07,323,11*76
$GPGSV,4,4,13,30,16,132,28,,,,,,,,,,,,*45
$GQGSV,2,1,05,02,13,186,33,03,82,156,39,04,74,195,45,07,47,196,31*73
$GQGSV,2,2,05,57,,,40,,,,,,,,,,,,*7B
$GNRMC,034136.00,A,3510.3952,N,13653.8529,E,1.5,344.2,180724,8.1,W,D*35
$GNVTG,344.2,T,352.3,M,1.5,N,2.7,K,D*3F
$GNZDA,034136.00,18,07,2024,,*71
$L1BAT,4.110*2C
$L1MAG,0.00,0.00,988,988*36
$GPGGA,034137.00,3510.3952,N,13653.8529,E,2,08,1.5,13.3,M,35.5,M,,*5D
$GNGLL,3510.3952,N,13653.8529,E,034137.00,A,D*7E
$GNGSA,A,3,07,06,05,11,195,20,196,09,,,,,2.2,1.5,1.6*23
$GPGSV,4,1,13,04,01,037,,05,29,273,31,06,57,096,43,07,20,098,37*79
$GPGSV,4,2,13,09,35,046,32,11,67,342,13,12,04,259,,13,18,199,22*74
$GPGSV,4,3,13,17,08,164,23,19,28,173,32,20,52,300,25,29,07,323,*79
$GPGSV,4,4,13,30,16,132,26,,,,,,,,,,,,*4B
$GQGSV,2,1,05,02,13,186,30,03,82,156,40,04,74,195,43,07,47,196,34*7D
$GQGSV,2,2,05,57,,,41,,,,,,,,,,,,*7A
$GNRMC,034137.00,A,3510.3952,N,13653.8529,E,0.0,13.8,180724,8.1,W,D*0B
$GNVTG,13.8,T,21.9,M,0.0,N,0.0,K,D*38
$GNZDA,034137.00,18,07,2024,,*70
$L1BAT,4.110*2C
$L1MAG,0.00,0.00,903,903*36
$GPGGA,034138.01,3510.3952,N,13653.8529,E,2,08,1.5,13.6,M,35.5,M,,*56
$GNGLL,3510.3952,N,13653.8529,E,034138.01,A,D*70
$GNGSA,A,3,07,06,05,11,195,20,196,09,,,,,2.2,1.5,1.6*23
$GPGSV,4,1,13,04,01,037,,05,29,273,35,06,57,096,44,07,20,098,39*74
$GPGSV,4,2,13,09,35,046,37,11,67,342,14,12,04,259,,13,18,199,23*77
$GPGSV,4,3,13,17,08,164,27,19,28,173,32,20,52,300,23,29,07,323,00*7B
$GPGSV,4,4,13,30,16,132,26,,,,,,,,,,,,*4B
$GQGSV,2,1,05,02,13,186,31,03,82,156,42,04,74,195,40,07,47,196,33*7A
$GQGSV,2,2,05,57,,,42,,,,,,,,,,,,*79
$GNRMC,034138.01,A,3510.3952,N,13653.8529,E,1.5,13.8,180724,8.1,W,D*01
$GNVTG,13.8,T,21.9,M,1.5,N,2.7,K,D*39
$GNZDA,034138.01,18,07,2024,,*7E
$L1BAT,4.110*2C
$L1MAG,0.00,0.00,885,885*36
$GPGGA,034139.00,3510.3952,N,13653.8529,E,2,08,1.5,13.7,M,35.5,M,,*57
$GNGLL,3510.3952,N,13653.8529,E,034139.00,A,D*70
$GNGSA,A,3,07,06,05,11,195,20,196,09,,,,,2.2,1.5,1.6*23
$GPGSV,4,1,13,04,01,037,,05,29,273,40,06,57,096,43,07,20,098,35*7D
$GPGSV,4,2,13,09,35,046,36,11,67,342,21,12,04,259,00,13,18,199,24*77
$GPGSV,4,3,13,17,08,164,27,19,28,173,39,20,52,300,27,29,07,323,00*74
$GPGSV,4,4,13,30,16,132,31,,,,,,,,,,,,*4D
$GQGSV,2,1,05,02,13,186,30,03,82,156,43,04,74,195,41,07,47,196,33*7B
$GQGSV,2,2,05,57,,,44,,,,,,,,,,,,*7F
$GNRMC,034139.00,A,3510.3952,N,13653.8529,E,1.3,13.8,180724,8.1,W,D*07
$GNVTG,13.8,T,21.9,M,1.3,N,2.5,K,D*3D
$GNZDA,034139.00,18,07,2024,,*7E
$L1BAT,4.110*2C
$L1MAG,0.00,0.00,1103,1103*36
$GPGGA,034140.01,3510.3952,N,13653.8529,E,2,08,1.5,13.8,M,35.5,M,,*57
$GNGLL,3510.3952,N,13653.8529,E,034140.01,A,D*7F
$GNGSA,A,3,07,06,05,11,195,20,196,09,,,,,2.2,1.5,1.6*23
$GPGSV,4,1,13,04,01,037,,05,29,273,30,06,57,096,45,07,20,098,38*71
$GPGSV,4,2,13,09,35,046,39,11,67,342,20,12,04,259,00,13,18,199,23*7E
$GPGSV,4,3,13,17,08,164,20,19,28,173,36,20,52,300,24,29,07,323,00*7F
$GPGSV,4,4,13,30,16,132,24,,,,,,,,,,,,*49
$GQGSV,2,1,05,02,13,186,33,03,82,156,41,04,74,195,40,07,47,196,33*7B
$GQGSV,2,2,05,57,,,42,,,,,,,,,,,,*79
$GNRMC,034140.01,A,3510.3952,N,13653.8529,E,2.1,140.2,180724,8.1,W,D*34
$GNVTG,140.2,T,148.3,M,2.1,N,3.8,K,D*39
$GNZDA,034140.01,18,07,2024,,*71
$L1BAT,4.110*2C
$L1MAG,0.00,0.00,1313,1313*36
$GPGGA,034141.00,3510.3952,N,13653.8529,E,2,08,1.5,13.8,M,35.5,M,,*57
$GNGLL,3510.3952,N,13653.8529,E,034141.00,A,D*7F
$GNGSA,A,3,07,06,05,11,195,20,196,09,,,,,2.2,1.5,1.6*23
$GPGSV,4,1,13,04,01,037,,05,29,273,26,06,57,096,43,07,20,098,35*7D
$GPGSV,4,2,13,09,35,046,36,11,67,342,21,12,04,259,00,13,18,199,24*77
$GPGSV,4,3,13,17,08,164,20,19,28,173,35,20,52,300,24,29,07,323,00*7C
$GPGSV,4,4,13,30,16,132,26,,,,,,,,,,,,*4B
$GQGSV,2,1,05,02,13,186,28,03,82,156,40,04,74,195,36,07,47,196,30*72
$GQGSV,2,2,05,57,,,42,,,,,,,,,,,,*79
$GNRMC,034141.00,A,3510.3952,N,13653.8529,E,2.1,115.1,180724,8.1,W,D*37
$GNVTG,115.1,T,123.2,M,2.1,N,3.8,K,D*36
$GNZDA,034141.00,18,07,2024,,*71
$L1BAT,4.110*2C
$L1MAG,0.00,0.00,1259,1259*36
$GPGGA,034142.00,3510.3956,N,13653.8544,E,2,08,1.5,13.8,M,35.5,M,,*5B
$GNGLL,3510.3956,N,13653.8544,E,034142.00,A,D*73
$GNGSA,A,3,07,06,05,11,195,20,196,09,,,,,2.2,1.5,1.6*23
$GPGSV,4,1,13,04,01,037,,05,29,273,26,06,57,096,43,07,20,098,39*71
$GPGSV,4,2,13,09,34,046,31,11,67,342,20,12,04,259,06,13,18,199,27*75
$GPGSV,4,3,13,17,08,164,22,19,28,173,37,20,52,300,25,29,07,323,00*7D
$GPGSV,4,4,13,30,16,132,22,,,,,,,,,,,,*4F
$GQGSV,2,1,05,02,13,186,34,03,82,156,42,04,74,195,35,07,47,196,33*7D
$GQGSV,2,2,05,57,,,42,,,,,,,,,,,,*79
$GNRMC,034142.00,A,3510.3956,N,13653.8544,E,4.6,101.9,180724,8.1,W,D*37
$GNVTG,101.9,T,110.0,M,4.6,N,8.5,K,D*3E
$GNZDA,034142.00,18,07,2024,,*72
$L1BAT,4.110*2C
$L1MAG,0.00,0.00,1193,1193*36
$GPGGA,034143.00,3510.3953,N,13653.8566,E,2,08,1.5,13.9,M,35.5,M,,*5E
$GNGLL,3510.3953,N,13653.8566,E,034143.00,A,D*77
$GNGSA,A,3,07,06,05,11,195,20,196,09,,,,,2.2,1.5,1.6*23
$GPGSV,4,1,13,04,01,037,,05,29,273,28,06,57,096,43,07,20,098,38*7E
$GPGSV,4,2,13,09,34,046,33,11,67,342,26,12,04,259,00,13,18,199,29*79
$GPGSV,4,3,13,17,08,164,17,19,28,173,39,20,52,300,21,29,07,323,06*77
$GPGSV,4,4,13,30,16,132,20,,,,,,,,,,,,*4D
$GQGSV,2,1,05,02,13,186,31,03,82,156,42,04,74,195,38,07,47,196,35*73
$GQGSV,2,2,05,57,,,44,,,,,,,,,,,,*7F
$GNRMC,034143.00,A,3510.3953,N,13653.8566,E,6.2,95.0,180724,8.1,W,D*00
$GNVTG,95.0,T,103.1,M,6.2,N,11.5,K,D*36
$GNZDA,034143.00,18,07,2024,,*73
$L1BAT,4.110*2C
$L1MAG,0.00,0.00,1211,1211*36
$GPGGA,034144.00,3510.3953,N,13653.8595,E,2,08,1.5,14.0,M,35.5,M,,*5B
$GNGLL,3510.3953,N,13653.8595,E,034144.00,A,D*7C
$GNGSA,A,3,07,06,05,11,195,20,196,09,,,,,2.2,1.5,1.6*23
$GPGSV,4,1,13,04,01,037,,05,29,273,29,06,57,096,43,07,20,098,37*70
$GPGSV,4,2,13,09,34,046,29,11,67,342,37,12,04,259,00,13,18,199,29*72
$GPGSV,4,3,13,17,08,164,20,19,28,173,37,20,52,300,21,29,07,323,07*7C
$GPGSV,4,4,13,30,16,132,21,,,,,,,,,,,,*4C
$GQGSV,2,1,05,02,13,186,26,03,82,156,40,04,74,195,37,07,47,196,33*7E
$GQGSV,2,2,05,57,,,41,,,,,,,,,,,,*7A
$GNRMC,034144.00,A,3510.3953,N,13653.8595,E,7.9,92.0,180724,8.1,W,D*06
$GNVTG,92.0,T,100.1,M,7.9,N,14.6,K,D*3E
$GNZDA,034144.00,18,07,2024,,*74
$L1BAT,4.110*2C
$L1MAG,0.00,0.00,1122,1122*36
$GPGGA,034145.07,3510.3956,N,13653.8633,E,2,08,1.5,14.2,M,35.5,M,,*55
$GNGLL,3510.3956,N,13653.8633,E,034145.07,A,D*70
$GNGSA,A,3,07,06,05,11,195,20,196,09,,,,,2.2,1.5,1.6*23
$GPGSV,4,1,14,04,01,037,,05,29,273,32,06,57,096,42,07,20,098,39*72
$GPGSV,4,2,14,09,34,046,32,11,67,342,45,12,04,259,18,13,18,199,30*7B
$GPGSV,4,3,14,17,08,164,22,18,,,00,19,28,173,35,20,52,300,23*49
$GPGSV,4,4,14,29,07,323,00,30,16,132,20,,,,,,,,*74
$GQGSV,2,1,05,02,13,186,24,03,82,156,40,04,74,195,37,07,47,196,34*7B
$GQGSV,2,2,05,57,,,42,,,,,,,,,,,,*79
$GNRMC,034145.07,A,3510.3956,N,13653.8633,E,10.0,88.8,180724,8.1,W,D*36
$GNVTG,88.8,T,96.9,M,10.0,N,18.5,K,D*3B
$GNZDA,034145.07,18,07,2024,,*72
$L1BAT,4.110*2C
$L1MAG,0.00,0.00,1063,1063*36
$GPGGA,034146.08,3510.3957,N,13653.8669,E,2,08,1.5,14.2,M,35.5,M,,*57
$GNGLL,3510.3957,N,13653.8669,E,034146.08,A,D*72
$GNGSA,A,3,07,06,05,11,195,20,196,09,,,,,2.2,1.5,1.6*23
$GPGSV,4,1,14,04,01,037,,05,29,273,31,06,57,096,40,07,20,098,38*72
$GPGSV,4,2,14,09,34,046,30,11,67,342,35,12,04,259,00,13,18,199,30*77
$GPGSV,4,3,14,17,08,164,26,18,,,07,19,28,173,35,20,52,300,23*4A
$GPGSV,4,4,14,29,07,323,00,30,16,132,18,,,,,,,,*7F
$GQGSV,2,1,05,02,13,186,24,03,82,156,39,04,74,195,38,07,47,196,35*7B
$GQGSV,2,2,05,57,,,41,,,,,,,,,,,,*7A
$GNRMC,034146.08,A,3510.3957,N,13653.8669,E,10.7,87.1,180724,8.1,W,D*35
$GNVTG,87.1,T,95.3,M,10.7,N,19.8,K,D*3F
$GNZDA,034146.08,18,07,2024,,*7E
$L1BAT,4.110*2C
$L1MAG,0.00,0.00,1066,1066*36
$GPGGA,034147.03,3510.3957,N,13653.8697,E,2,08,1.5,14.2,M,35.5,M,,*5C
$GNGLL,3510.3957,N,13653.8697,E,034147.03,A,D*79
$GNGSA,A,3,07,06,05,11,195,20,196,09,,,,,2.2,1.5,1.6*23
$GPGSV,4,1,14,04,01,037,,05,29,273,30,06,57,096,41,07,20,098,38*72
$GPGSV,4,2,14,09,34,046,30,11,67,342,29,12,04,259,00,13,18,199,29*72
$GPGSV,4,3,14,17,08,164,21,18,,,16,19,28,173,37,20,52,300,24*48
$GPGSV,4,4,14,29,07,323,00,30,16,132,16,,,,,,,,*71
$GQGSV,2,1,05,02,13,186,27,03,82,156,38,04,74,195,37,07,47,196,34*77
$GQGSV,2,2,05,57,,,40,,,,,,,,,,,,*7B
$GNRMC,034147.03,A,3510.3957,N,13653.8697,E,10.8,86.3,180724,8.1,W,D*32
$GNVTG,86.3,T,94.4,M,10.8,N,20.0,K,D*37
$GNZDA,034147.03,18,07,2024,,*74
$L1BAT,4.110*2C
$L1MAG,0.00,0.00,1005,1005*36
$GPGGA,034148.00,3510.3959,N,13653.8733,E,2,08,1.5,14.1,M,35.5,M,,*52
$GNGLL,3510.3959,N,13653.8733,E,034148.00,A,D*74
$GNGSA,A,3,07,06,05,11,195,20,196,09,,,,,2.2,1.5,1.6*23
$GPGSV,4,1,14,04,01,037,,05,29,273,24,06,57,096,41,07,20,098,36*79
$GPGSV,4,2,14,09,34,046,32,11,67,342,32,12,04,259,00,13,18,199,26*75
$GPGSV,4,3,14,17,08,164,19,18,,,08,19,28,173,37,20,52,300,28*40
$GPGSV,4,4,14,29,07,323,00,30,16,132,17,,,,,,,,*70
$GQGSV,2,1,05,02,13,186,25,03,82,156,40,04,74,195,39,07,47,196,33*73
$GQGSV,2,2,05,57,,,42,,,,,,,,,,,,*79
$GNRMC,034148.00,A,3510.3959,N,13653.8733,E,10.9,86.3,180724,8.1,W,D*3E
$GNVTG,86.3,T,94.4,M,10.9,N,20.2,K,D*34
$GNZDA,034148.00,18,07,2024,,*78
$L1BAT,4.110*2C
$L1MAG,0.00,0.00,1021,1021*36
$GPGGA,034149.00,3510.3961,N,13653.8770,E,2,08,1.5,13.9,M,35.5,M,,*50
$GNGLL,3510.3961,N,13653.8770,E,034149.00,A,D*79
$GNGSA,A,3,07,06,05,11,195,20,196,09,,,,,2.2,1.5,1.6*23
$GPGSV,4,1,14,04,01,037,,05,29,273,23,06,57,096,41,07,20,098,32*7A
$GPGSV,4,2,14,09,34,046,33,11,67,342,42,12,04,259,13,13,18,199,24*73
$GPGSV,4,3,14,17,08,164,22,18,,,09,19,28,173,35,20,52,300,32*40
$GPGSV,4,4,14,29,07,323,00,30,16,132,17,,,,,,,,*70
$GQGSV,2,1,05,02,13,186,32,03,82,156,41,04,74,195,38,07,47,196,33*75
$GQGSV,2,2,05,57,,,44,,,,,,,,,,,,*7F
$GNRMC,034149.00,A,3510.3961,N,13653.8770,E,10.9,86.3,180724,8.1,W,D*33
$GNVTG,86.3,T,94.4,M,10.9,N,20.2,K,D*34
$GNZDA,034149.00,18,07,2024,,*79
$L1BAT,4.110*2C
$L1MAG,0.00,0.00,1048,1048*36
$GPGGA,034150.00,3510.3961,N,13653.8801,E,2,08,1.5,13.9,M,35.5,M,,*51
$GNGLL,3510.3961,N,13653.8801,E,034150.00,A,D*78
$GNGSA,A,3,07,06,05,11,195,20,196,09,,,,,2.2,1.5,1.6*23
$GPGSV,4,1,14,04,01,037,,05,29,273,25,06,57,096,40,07,20,098,29*77
$GPGSV,4,2,14,09,34,046,35,11,67,342,37,12,04,259,06,13,18,199,26*71
$GPGSV,4,3,14,17,08,164,19,18,,,09,19,28,173,33,20,52,300,36*4A
$GPGSV,4,4,14,29,07,323,00,30,16,132,18,,,,,,,,*7F
$GQGSV,2,1,05,02,13,186,27,03,82,156,40,04,74,195,39,07,47,196,33*71
$GQGSV,2,2,05,57,,,42,,,,,,,,,,,,*79
$GNRMC,034150.00,A,3510.3961,N,13653.8801,E,10.5,87.0,180724,8.1,W,D*3C
$GNVTG,87.0,T,95.1,M,10.5,N,19.5,K,D*33
$GNZDA,034150.00,18,07,2024,,*71
$L1BAT,4.110*2C
$L1MAG,0.00,0.00,1071,1071*36
$GPGGA,034151.00,3510.3965,N,13653.8845,E,2,08,1.5,14.0,M,35.5,M,,*5A
$GNGLL,3510.3965,N,13653.8845,E,034151.00,A,D*7D
$GNGSA,A,3,07,06,05,11,195,20,196,09,,,,,2.2,1.5,1.6*23
$GPGSV,4,1,13,04,01,037,,05,29,273,21,06,57,096,42,07,20,098,28*77
$GPGSV,4,2,13,09,34,046,31,11,67,342,37,12,04,259,00,13,18,199,30*73
$GPGSV,4,3,13,17,08,164,19,19,27,173,34,20,52,300,29,29,07,323,00*75
$GPGSV,4,4,13,30,16,132,17,,,,,,,,,,,,*49
$GQGSV,2,1,05,02,13,186,26,03,82,156,39,04,74,195,37,07,47,196,33*70
$GQGSV,2,2,05,57,,,41,,,,,,,,,,,,*7A
$GNRMC,034151.00,A,3510.3965,N,13653.8845,E,10.7,83.7,180724,8.1,W,D*38
$GNVTG,83.7,T,91.8,M,10.7,N,19.8,K,D*32
$GNZDA,034151.00,18,07,2024,,*70
$L1BAT,4.110*2C
$L1MAG,0.00,0.00,902,902*36
$GPGGA,034152.00,3510.3970,N,13653.8890,E,2,08,1.5,14.3,M,35.5,M,,*56
$GNGLL,3510.3970,N,13653.8890,E,034152.00,A,D*72
$GNGSA,A,3,07,06,05,11,195,20,196,09,,,,,2.2,1.5,1.6*23
$GPGSV,4,1,13,04,01,037,,05,29,273,28,06,57,096,44,07,20,098,28*78
$GPGSV,4,2,13,09,34,046,25,11,67,342,45,12,04,259,,13,18,199,24*76
$GPGSV,4,3,13,17,08,164,20,19,27,173,33,20,52,300,41,29,07,323,00*76
$GPGSV,4,4,13,30,16,132,24,,,,,,,,,,,,*49
$GQGSV,2,1,05,02,13,186,29,03,82,156,41,04,75,196,38,07,47,196,29*76
$GQGSV,2,2,05,57,,,42,,,,,,,,,,,,*79
$GNRMC,034152.00,A,3510.3970,N,13653.8890,E,10.7,82.1,180724,8.1,W,D*30
$GNVTG,82.1,T,90.3,M,10.7,N,19.8,K,D*3F
$GNZDA,034152.00,18,07,2024,,*73
$L1BAT,4.110*2C
$L1MAG,0.00,0.00,789,789*36
$GPGGA,034153.04,3510.3971,N,13653.8928,E,2,08,1.5,14.7,M,35.5,M,,*54
$GNGLL,3510.3971,N,13653.8928,E,034153.04,A,D*74
$GNGSA,A,3,07,06,05,11,195,20,196,09,,,,,2.2,1.5,1.6*23
$GPGSV,4,1,13,04,01,037,,05,29,273,23,06,57,096,41,07,20,098,25*7B
$GPGSV,4,2,13,09,34,046,27,11,67,342,43,12,04,259,,13,18,199,25*73
$GPGSV,4,3,13,17,08,164,19,19,27,173,36,20,52,300,40,29,07,323,00*78
$GPGSV,4,4,13,30,16,132,24,,,,,,,,,,,,*49
$GQGSV,2,1,05,02,13,186,28,03,82,156,41,04,75,196,39,07,47,196,33*7D
$GQGSV,2,2,05,57,,,42,,,,,,,,,,,,*79
$GNRMC,034153.04,A,3510.3971,N,13653.8928,E,10.7,84.0,180724,8.1,W,D*31
$GNVTG,84.0,T,92.1,M,10.7,N,19.9,K,D*39
$GNZDA,034153.04,18,07,2024,,*76
$L1BAT,4.110*2C
$L1MAG,0.00,0.00,1024,1024*36
$GPGGA,034154.03,3510.3971,N,13653.8963,E,2,08,1.5,15.1,M,35.5,M,,*5C
$GNGLL,3510.3971,N,13653.8963,E,034154.03,A,D*7B
$GNGSA,A,3,07,06,05,11,195,20,196,09,,,,,2.2,1.5,1.6*23
$GPGSV,4,1,13,04,01,037,,05,29,273,23,06,57,096,40,07,20,098,25*7A
$GPGSV,4,2,13,09,34,046,27,11,67,342,33,12,04,259,00,13,18,199,25*74
$GPGSV,4,3,13,17,08,164,19,19,27,173,32,20,52,300,34,29,07,323,00*7F
$GPGSV,4,4,13,30,16,132,19,,,,,,,,,,,,*47
$GQGSV,2,1,05,02,13,186,26,03,82,156,39,04,75,196,38,07,47,196,35*7B
$GQGSV,2,2,05,57,,,40,,,,,,,,,,,,*7B
$GNRMC,034154.03,A,3510.3971,N,13653.8963,E,10.7,86.5,180724,8.1,W,D*39
$GNVTG,86.5,T,94.6,M,10.7,N,19.9,K,D*3F
$GNZDA,034154.03,18,07,2024,,*76
$L1BAT,4.110*2C
$L1MAG,0.00,0.00,1086,1086*36
$GPGGA,034155.00,3510.3972,N,13653.8992,E,2,08,1.5,15.7,M,35.5,M,,*55
$GNGLL,3510.3972,N,13653.8992,E,034155.00,A,D*74
$GNGSA,A,3,07,06,05,11,195,20,196,09,,,,,2.2,1.5,1.6*23
$GPGSV,4,1,13,04,01,037,,05,29,273,20,06,57,096,43,07,20,098,21*7E
$GPGSV,4,2,13,09,34,046,24,11,67,342,32,12,04,259,00,13,18,199,22*71
$GPGSV,4,3,13,17,08,164,15,19,27,173,26,20,52,300,27,29,07,323,13*76
$GPGSV,4,4,13,30,16,132,17,,,,,,,,,,,,*49
$GQGSV,2,1,05,02,13,186,28,03,82,156,41,04,75,196,38,07,47,196,34*7B
$GQGSV,2,2,05,57,,,44,,,,,,,,,,,,*7F
$GNRMC,034155.00,A,3510.3972,N,13653.8992,E,,87.3,180724,8.1,W,D*29
$GNVTG,87.3,T,95.4,M,,N,,K,D*3C
$GNZDA,034155.00,18,07,2024,,*74
$L1BAT,4.110*2C
$L1MAG,0.00,0.00,1031,1031*36
$GPGGA,034156.00,3510.3972,N,13653.9036,E,2,08,1.5,16.2,M,35.5,M,,*56
$GNGLL,3510.3972,N,13653.9036,E,034156.00,A,D*71
$GNGSA,A,3,07,06,05,11,195,20,196,09,,,,,2.2,1.5,1.6*23
$GPGSV,4,1,13,04,01,037,,05,29,273,26,06,57,096,43,07,20,098,23*7A
$GPGSV,4,2,13,09,34,046,27,11,67,342,21,12,04,259,,13,18,199,26*74
$GPGSV,4,3,13,17,08,164,16,19,27,173,30,20,52,300,32,29,07,323,17*72
$GPGSV,4,4,13,30,16,132,19,,,,,,,,,,,,*47
$GQGSV,2,1,05,02,13,186,32,03,82,156,39,04,75,196,39,07,47,196,33*79
$GQGSV,2,2,05,57,,,40,,,,,,,,,,,,*7B
$GNRMC,034156.00,A,3510.3972,N,13653.9036,E,10.7,85.3,180724,8.1,W,D*36
$GNVTG,85.3,T,93.4,M,10.7,N,19.9,K,D*3F
$GNZDA,034156.00,18,07,2024,,*77
$L1BAT,4.110*2C
$L1MAG,0.00,0.00,1015,1015*36
$GPGGA,034157.00,3510.3968,N,13653.9067,E,2,08,1.5,16.7,M,35.5,M,,*5D
$GNGLL,3510.3968,N,13653.9067,E,034157.00,A,D*7F
$GNGSA,A,3,07,06,05,11,195,20,196,09,,,,,2.2,1.5,1.6*23
$GPGSV,4,1,13,04,01,037,,05,29,273,26,06,57,096,43,07,20,098,27*7E
$GPGSV,4,2,13,09,34,046,27,11,67,342,20,12,04,259,,13,18,199,28*7B
$GPGSV,4,3,13,17,08,164,14,19,27,173,26,20,52,300,34,29,07,323,00*77
$GPGSV,4,4,13,30,16,132,18,,,,,,,,,,,,*46
$GQGSV,2,1,05,02,13,186,27,03,82,156,42,04,75,196,38,07,47,196,36*75
$GQGSV,2,2,05,57,,,44,,,,,,,,,,,,*7F
$GNRMC,034157.00,A,3510.3968,N,13653.9067,E,10.7,87.5,180724,8.1,W,D*3C
$GNVTG,87.5,T,95.6,M,10.7,N,19.9,K,D*3F
$GNZDA,034157.00,18,07,2024,,*76
$L1BAT,4.110*2C
$L1MAG,0.00,0.00,956,956*36
$GPGGA,034158.00,3510.3972,N,13653.9108,E,2,08,1.5,17.1,M,35.5,M,,*56
$GNGLL,3510.3972,N,13653.9108,E,034158.00,A,D*73
$GNGSA,A,3,07,06,05,11,195,20,196,09,,,,,2.2,1.5,1.6*23
$GPGSV,4,1,13,04,01,037,,05,29,273,27,06,57,096,41,07,20,098,32*79
$GPGSV,4,2,13,09,34,046,27,11,67,342,17,12,04,259,,13,18,199,27*70
$GPGSV,4,3,13,17,08,164,14,19,27,173,27,20,52,300,33,29,07,323,07*76
$GPGSV,4,4,13,30,16,132,29,,,,,,,,,,,,*44
$GQGSV,2,1,05,02,13,186,22,03,82,156,43,04,75,196,39,07,47,196,31*77
$GQGSV,2,2,05,57,,,46,,,,,,,,,,,,*7D
$GNRMC,034158.00,A,3510.3972,N,13653.9108,E,10.7,85.5,180724,8.1,W,D*32
$GNVTG,85.5,T,93.6,M,10.7,N,19.8,K,D*3A
$GNZDA,034158.00,18,07,2024,,*79
$L1BAT,4.110*2C
$L1MAG,0.00,0.00,922,922*36
$GPGGA,034159.08,3510.3977,N,13653.9140,E,2,08,1.5,17.5,M,35.5,M,,*52
$GNGLL,3510.3977,N,13653.9140,E,034159.08,A,D*73
$GNGSA,A,3,07,06,05,11,195,20,196,09,,,,,2.2,1.5,1.6*23
$GPGSV,4,1,13,04,01,037,,05,29,273,29,06,57,096,40,07,20,098,27*72
$GPGSV,4,2,13,09,34,046,29,11,67,342,25,12,04,259,13,13,18,199,29*73
$GPGSV,4,3,13,17,08,164,14,19,27,173,24,20,52,300,30,29,07,323,00*71
$GPGSV,4,4,13,30,16,132,32,,,,,,,,,,,,*4E
$GQGSV,2,1,05,02,13,186,21,03,82,156,42,04,75,196,44,07,47,196,28*77
$GQGSV,2,2,05,57,,,44,,,,,,,,,,,,*7F
$GNRMC,034159.08,A,3510.3977,N,13653.9140,E,10.4,84.5,180724,8.1,W,D*30
$GNVTG,84.5,T,92.6,M,10.4,N,19.3,K,D*32
$GNZDA,034159.08,18,07,2024,,*70
$L1BAT,4.110*2C
$L1MAG,0.00,0.00,1024,1024*36
$GPGGA,034200.06,3510.3982,N,13653.9168,E,2,08,1.5,17.9,M,35.5,M,,*5F
$GNGLL,3510.3982,N,13653.9168,E,034200.06,A,D*72
$GNGSA,A,3,07,06,05,11,195,20,196,09,,,,,2.2,1.5,1.6*23
$GPGSV,4,1,13,04,01,037,,05,29,273,29,06,57,096,41,07,20,098,26*72
$GPGSV,4,2,13,09,34,046,28,11,67,342,28,12,04,259,13,13,18,199,30*77
$GPGSV,4,3,13,17,08,164,16,19,27,173,24,20,52,300,24,29,07,323,00*76
$GPGSV,4,4,13,30,16,132,26,,,,,,,,,,,,*4B
$GQGSV,2,1,05,02,13,186,27,03,82,156,42,04,75,196,44,07,47,196,29*70
$GQGSV,2,2,05,57,,,44,,,,,,,,,,,,*7F
$GNRMC,034200.06,A,3510.3982,N,13653.9168,E,8.5,83.8,180724,8.1,W,D*03
$GNVTG,83.8,T,91.9,M,8.5,N,15.8,K,D*0B
$GNZDA,034200.06,18,07,2024,,*71
$L1BAT,4.110*2C
$L1MAG,0.00,0.00,1143,1143*36
$GPGGA,034201.00,3510.3976,N,13653.9192,E,2,08,1.5,18.3,M,35.5,M,,*53
$GNGLL,3510.3976,N,13653.9192,E,034201.00,A,D*7B
$GNGSA,A,3,07,06,05,11,195,20,196,09,,,,,2.2,1.5,1.6*23
$GPGSV,4,1,13,04,01,037,,05,29,273,30,06,57,096,44,07,20,098,29*70
$GPGSV,4,2,13,09,34,046,25,11,67,342,28,12,04,259,13,13,18,199,28*73
$GPGSV,4,3,13,17,08,164,17,19,27,173,23,20,52,300,19,29,07,323,10*7F
$GPGSV,4,4,13,30,16,132,24,,,,,,,,,,,,*49
$GQGSV,2,1,05,02,13,186,28,03,82,156,41,04,75,196,36,07,47,196,30*71
$GQGSV,2,2,05,57,,,44,,,,,,,,,,,,*7F
$GNRMC,034201.00,A,3510.3976,N,13653.9192,E,7.3,85.9,180724,8.1,W,D*04
$GNVTG,85.9,T,94.0,M,7.3,N,13.5,K,D*02
$GNZDA,034201.00,18,07,2024,,*76
$L1BAT,4.110*2C
$L1MAG,0.00,0.00,1165,1165*36
$GPGGA,034202.00,3510.3975,N,13653.9224,E,2,08,1.5,18.6,M,35.5,M,,*58
$GNGLL,3510.3975,N,13653.9224,E,034202.00,A,D*75
$GNGSA,A,3,07,06,05,11,195,20,196,09,,,,,2.2,1.5,1.6*23
$GPGSV,4,1,13,04,01,037,,05,29,273,31,06,57,096,45,07,20,098,28*71
$GPGSV,4,2,13,09,34,046,22,11,67,342,26,12,04,259,12,13,18,199,27*74
$GPGSV,4,3,13,17,08,164,13,19,27,173,17,20,52,300,20,29,07,323,06*71
$GPGSV,4,4,13,30,16,132,27,,,,,,,,,,,,*4A
$GQGSV,2,1,05,02,13,186,27,03,82,156,42,04,75,196,35,07,47,196,27*78
$GQGSV,2,2,05,57,,,44,,,,,,,,,,,,*7F
$GNRMC,034202.00,A,3510.3975,N,13653.9224,E,7.3,85.6,180724,8.1,W,D*05
$GNVTG,85.6,T,93.7,M,7.3,N,13.5,K,D*0D
$GNZDA,034202.00,18,07,2024,,*75
$L1BAT,4.110*2C
$L1MAG,0.00,0.00,1144,1144*36
$GPGGA,034203.00,3510.3979,N,13653.9256,E,2,08,1.5,18.8,M,35.5,M,,*5E
$GNGLL,3510.3979,N,13653.9256,E,034203.00,A,D*7D
$GNGSA,A,3,07,06,05,11,195,20,196,09,,,,,2.2,1.5,1.6*23
$GPGSV,4,1,13,04,01,037,,05,29,273,31,06,57,096,39,07,20,098,29*7B
$GPGSV,4,2,13,09,34,046,19,11,67,342,25,12,04,259,00,13,18,199,20*7B
$GPGSV,4,3,13,17,08,164,17,19,27,173,19,20,52,300,20,29,07,323,08*75
$GPGSV,4,4,13,30,16,132,28,,,,,,,,,,,,*45
$GQGSV,2,1,05,02,13,186,26,03,82,156,43,04,75,196,36,07,47,196,29*75
$GQGSV,2,2,05,57,,,44,,,,,,,,,,,,*7F
$GNRMC,034203.00,A,3510.3979,N,13653.9256,E,9.5,84.0,180724,8.1,W,D*02
$GNVTG,84.0,T,92.1,M,9.5,N,17.6,K,D*02
$GNZDA,034203.00,18,07,2024,,*74
$L1BAT,4.110*2C
$L1MAG,0.00,0.00,1126,1126*36
$GPGGA,034204.00,3510.3985,N,13653.9293,E,2,08,1.5,19.0,M,35.5,M,,*5A
$GNGLL,3510.3985,N,13653.9293,E,034204.00,A,D*70
$GNGSA,A,3,07,06,05,11,195,20,196,09,,,,,2.2,1.5,1.7*22
$GPGSV,4,1,13,04,01,037,,05,29,273,30,06,57,096,34,07,20,098,34*7B
$GPGSV,4,2,13,09,34,046,20,11,67,342,25,12,04,259,00,13,18,199,21*70
$GPGSV,4,3,13,17,08,164,20,19,27,173,19,20,52,300,23,29,07,323,07*7D
$GPGSV,4,4,13,30,16,132,37,,,,,,,,,,,,*4B
$GQGSV,2,1,05,02,13,186,23,03,82,156,33,04,75,196,35,07,47,196,28*75
$GQGSV,2,2,05,57,,,35,,,,,,,,,,,,*79
$GNRMC,034204.00,A,3510.3985,N,13653.9293,E,10.4,82.5,180724,8.1,W,D*35
$GNVTG,82.5,T,90.6,M,10.4,N,19.2,K,D*37
$GNZDA,034204.00,18,07,2024,,*73
$L1BAT,4.108*25
$L1MAG,0.00,0.00,1182,1182*36
$GPGGA,034205.00,3510.3988,N,13653.9330,E,2,08,1.5,19.1,M,35.5,M,,*5F
$GNGLL,3510.3988,N,13653.9330,E,034205.00,A,D*74
$GNGSA,A,3,07,06,05,11,195,20,196,09,,,,,2.2,1.5,1.7*22
$GPGSV,4,1,13,04,01,037,,05,29,273,31,06,57,096,42,07,20,098,35*7A
$GPGSV,4,2,13,09,34,046,20,11,67,342,28,12,04,259,11,13,18,199,23*7F
$GPGSV,4,3,13,17,08,164,19,19,27,173,17,20,52,300,29,29,07,323,00*74
$GPGSV,4,4,13,30,16,132,38,,,,,,,,,,,,*44
$GQGSV,2,1,05,02,13,186,20,03,82,156,35,04,75,196,33,07,47,196,23*7D
$GQGSV,2,2,05,57,,,36,,,,,,,,,,,,*7A
$GNRMC,034205.00,A,3510.3988,N,13653.9330,E,10.4,83.5,180724,8.1,W,D*30
$GNVTG,83.5,T,91.6,M,10.4,N,19.2,K,D*37
$GNZDA,034205.00,18,07,2024,,*72
$L1BAT,4.108*25
$L1MAG,0.00,0.00,1096,1096*36
$GPGGA,034206.02,3510.3989,N,13653.9373,E,2,08,1.5,18.9,M,35.5,M,,*51
$GNGLL,3510.3989,N,13653.9373,E,034206.02,A,D*73
$GNGSA,A,3,07,06,05,11,195,20,196,09,,,,,2.2,1.5,1.7*22
$GPGSV,4,1,13,04,01,037,,05,29,273,27,06,57,096,43,07,20,098,39*70
$GPGSV,4,2,13,09,34,046,16,11,67,342,34,12,04,259,,13,18,199,24*70
$GPGSV,4,3,13,17,08,164,19,19,27,173,18,20,52,300,23,29,07,323,00*71
$GPGSV,4,4,13,30,16,132,31,,,,,,,,,,,,*4D
$GQGSV,2,1,05,02,13,186,22,03,82,156,41,04,75,196,39,07,47,196,26*73
$GQGSV,2,2,05,57,,,42,,,,,,,,,,,,*79
$GNRMC,034206.02,A,3510.3989,N,13653.9373,E,10.4,83.9,180724,8.1,W,D*3B
$GNVTG,83.9,T,92.1,M,10.4,N,19.3,K,D*3E
$GNZDA,034206.02,18,07,2024,,*73
$L1BAT,4.108*25
$L1MAG,0.00,0.00,1153,1153*36
$GPGGA,034207.00,3510.3990,N,13653.9410,E,2,08,1.5,18.5,M,35.5,M,,*54
$GNGLL,3510.3990,N,13653.9410,E,034207.00,A,D*7A
$GNGSA,A,3,07,06,05,11,195,20,196,09,,,,,2.2,1.5,1.7*22
$GPGSV,4,1,13,04,01,037,,05,29,273,21,06,57,096,43,07,20,098,38*77
$GPGSV,4,2,13,09,34,046,19,11,67,342,42,12,04,259,00,13,18,199,22*78
$GPGSV,4,3,13,17,08,164,18,19,27,173,17,20,52,300,23,29,07,323,00*7F
$GPGSV,4,4,13,30,16,132,21,,,,,,,,,,,,*4C
$GQGSV,2,1,05,02,13,186,16,03,82,156,41,04,75,196,38,07,47,196,23*70
$GQGSV,2,2,05,57,,,41,,,,,,,,,,,,*7A
$GNRMC,034207.00,A,3510.3990,N,13653.9410,E,10.4,84.9,180724,8.1,W,D*35
$GNVTG,84.9,T,93.0,M,10.4,N,19.3,K,D*39
$GNZDA,034207.00,18,07,2024,,*70
$L1BAT,4.108*25
$L1MAG,0.00,0.00,1187,1187*36
$GPGGA,034208.00,3510.3993,N,13653.9439,E,2,08,1.5,18.1,M,35.5,M,,*57
$GNGLL,3510.3993,N,13653.9439,E,034208.00,A,D*7D
$GNGSA,A,3,07,06,05,11,195,20,196,09,,,,,2.2,1.5,1.7*22
$GPGSV,4,1,13,04,01,037,,05,29,273,22,06,57,096,42,07,20,098,39*74
$GPGSV,4,2,13,09,34,046,22,11,67,342,33,12,04,259,00,13,18,199,20*74
$GPGSV,4,3,13,17,08,164,15,19,27,173,19,20,52,300,21,29,07,323,00*7E
$GPGSV,4,4,13,30,16,132,20,,,,,,,,,,,,*4D
$GQGSV,2,1,05,02,13,186,20,03,82,156,39,04,75,196,38,07,47,196,30*78
$GQGSV,2,2,05,57,,,38,,,,,,,,,,,,*74
$GNRMC,034208.00,A,3510.3993,N,13653.9439,E,10.4,83.8,180724,8.1,W,D*34
$GNVTG,83.8,T,91.9,M,10.4,N,19.3,K,D*34
$GNZDA,034208.00,18,07,2024,,*7F
$L1BAT,4.108*25
$L1MAG,0.00,0.00,1153,1153*36
$GPGGA,034209.00,3510.3993,N,13653.9476,E,2,08,1.5,17.7,M,35.5,M,,*54
$GNGLL,3510.3993,N,13653.9476,E,034209.00,A,D*77
$GNGSA,A,3,07,06,05,11,195,20,196,09,,,,,2.2,1.5,1.7*22
$GPGSV,4,1,13,04,01,037,,05,29,273,20,06,57,096,43,07,20,098,36*78
$GPGSV,4,2,13,09,34,046,23,11,67,342,41,12,04,259,,13,18,199,20*70
$GPGSV,4,3,13,17,08,164,21,19,27,173,20,20,52,300,21,29,07,323,00*73
$GPGSV,4,4,13,30,16,132,16,,,,,,,,,,,,*48
$GQGSV,2,1,05,02,13,186,16,03,82,156,40,04,75,196,37,07,47,196,32*7E
$GQGSV,2,2,05,57,,,41,,,,,,,,,,,,*7A
$GNRMC,034209.00,A,3510.3993,N,13653.9476,E,10.7,84.6,180724,8.1,W,D*34
$GNVTG,84.6,T,92.7,M,10.7,N,19.8,K,D*38
$GNZDA,034209.00,18,07,2024,,*7E
$L1BAT,4.108*25
$L1MAG,0.00,0.00,1217,1217*36
$GPGGA,034210.00,3510.3996,N,13653.9521,E,2,08,1.5,17.5,M,35.5,M,,*58
$GNGLL,3510.3996,N,13653.9521,E,034210.00,A,D*79
$GNGSA,A,3,07,06,05,11,195,20,196,09,,,,,2.2,1.5,1.7*22
$GPGSV,4,1,13,04,01,037,,05,29,273,20,06,57,096,42,07,20,098,37*78
$GPGSV,4,2,13,09,34,046,27,11,67,342,24,12,04,259,,13,18,199,22*75
$GPGSV,4,3,13,17,07,164,23,19,27,173,26,20,52,300,26,29,07,323,17*79
$GPGSV,4,4,13,30,16,132,18,,,,,,,,,,,,*46
$GQGSV,2,1,05,02,13,186,19,03,82,156,41,04,75,196,38,07,47,196,34*79
$GQGSV,2,2,05,57,,,42,,,,,,,,,,,,*79
$GNRMC,034210.00,A,3510.3996,N,13653.9521,E,10.7,82.7,180724,8.1,W,D*3D
$GNVTG,82.7,T,90.9,M,10.7,N,19.8,K,D*33
$GNZDA,034210.00,18,07,2024,,*76
$L1BAT,4.108*25
$L1MAG,0.00,0.00,1172,1172*36
$GPGGA,034211.00,3510.3999,N,13653.9556,E,2,08,1.5,17.2,M,35.5,M,,*51
$GNGLL,3510.3999,N,13653.9556,E,034211.00,A,D*77
$GNGSA,A,3,07,06,05,11,195,20,196,09,,,,,2.2,1.5,1.7*22
$GPGSV,4,1,13,04,01,037,,05,29,273,23,06,57,096,41,07,20,098,35*7A
$GPGSV,4,2,13,09,34,046,29,11,67,342,31,12,04,259,,13,18,199,18*76
$GPGSV,4,3,13,17,07,164,24,19,27,173,35,20,52,300,33,29,07,323,15*7A
$GPGSV,4,4,13,30,16,132,14,,,,,,,,,,,,*4A
$GQGSV,2,1,05,02,13,186,20,03,82,156,40,04,75,196,37,07,47,196,32*7B
$GQGSV,2,2,05,57,,,42,,,,,,,,,,,,*79
$GNRMC,034211.00,A,3510.3999,N,13653.9556,E,10.7,80.4,180724,8.1,W,D*32
$GNVTG,80.4,T,88.5,M,10.7,N,19.9,K,D*36
$GNZDA,034211.00,18,07,2024,,*77
$L1BAT,4.108*25
$L1MAG,0.00,0.00,991,991*36
$GPGGA,034212.05,3510.4002,N,13653.9592,E,2,08,1.5,17.0,M,35.5,M,,*51
$GNGLL,3510.4002,N,13653.9592,E,034212.05,A,D*75
$GNGSA,A,3,07,06,05,11,195,20,196,09,,,,,2.2,1.5,1.7*22
$GPGSV,4,1,13,04,01,037,,05,29,273,22,06,57,096,41,07,20,098,34*7A
$GPGSV,4,2,13,09,34,046,27,11,67,342,45,12,04,259,04,13,18,199,16*71
$GPGSV,4,3,13,17,07,164,24,19,27,173,36,20,52,300,25,29,07,323,17*7C
$GPGSV,4,4,13,30,16,132,16,,,,,,,,,,,,*48
$GQGSV,2,1,05,02,13,186,20,03,82,156,41,04,75,196,39,07,47,196,30*76
$GQGSV,2,2,05,57,,,44,,,,,,,,,,,,*7F
$GNRMC,034212.05,A,3510.4002,N,13653.9592,E,10.7,80.3,180724,8.1,W,D*37
$GNVTG,80.3,T,88.5,M,10.7,N,19.9,K,D*31
$GNZDA,034212.05,18,07,2024,,*71
$L1BAT,4.108*25
$L1MAG,0.00,0.00,920,920*36
$GPGGA,034213.00,3510.4004,N,13653.9630,E,2,08,1.5,16.9,M,35.5,M,,*50
$GNGLL,3510.4004,N,13653.9630,E,034213.00,A,D*7C
$GNGSA,A,3,07,06,05,11,195,20,196,09,,,,,2.2,1.5,1.7*22
$GPGSV,4,1,13,04,01,037,,05,29,273,24,06,57,096,43,07,20,098,30*7A
$GPGSV,4,2,13,09,34,046,26,11,67,342,45,12,04,259,00,13,18,199,17*75
$GPGSV,4,3,13,17,07,164,25,19,27,173,36,20,52,300,22,29,07,323,16*7B
$GPGSV,4,4,13,30,16,132,17,,,,,,,,,,,,*49
$GQGSV,2,1,05,02,13,186,22,03,82,156,42,04,75,196,40,07,47,196,33*7A
$GQGSV,2,2,05,57,,,44,,,,,,,,,,,,*7F
$GNRMC,034213.00,A,3510.4004,N,13653.9630,E,10.8,82.9,180724,8.1,W,D*39
$GNVTG,82.9,T,91.0,M,10.8,N,20.0,K,D*38
$GNZDA,034213.00,18,07,2024,,*75
$L1BAT,4.108*25
$L1MAG,0.00,0.00,1030,1030*36
$GPGGA,034214.00,3510.4003,N,13653.9667,E,2,08,1.5,16.8,M,35.5,M,,*53
$GNGLL,3510.4003,N,13653.9667,E,034214.00,A,D*7E
$GNGSA,A,3,07,06,05,11,195,20,196,09,,,,,2.2,1.5,1.7*22
$GPGSV,4,1,13,04,01,037,,05,29,273,26,06,57,096,42,07,20,098,29*71
$GPGSV,4,2,13,09,34,046,27,11,67,342,42,12,04,259,00,13,18,199,11*75
$GPGSV,4,3,13,17,07,164,23,19,27,173,32,20,52,300,23,29,07,323,15*7B
$GPGSV,4,4,13,30,16,132,20,,,,,,,,,,,,*4D
$GQGSV,2,1,05,02,13,186,24,03,82,156,42,04,75,196,39,07,47,196,35*74
$GQGSV,2,2,05,57,,,42,,,,,,,,,,,,*79
$GNRMC,034214.00,A,3510.4003,N,13653.9667,E,10.8,85.6,180724,8.1,W,D*33
$GNVTG,85.6,T,93.7,M,10.8,N,20.0,K,D*35
$GNZDA,034214.00,18,07,2024,,*72
$L1BAT,4.108*25
$L1MAG,0.00,0.00,984,984*36
$GPGGA,034215.00,3510.3997,N,13653.9698,E,2,08,1.5,16.7,M,35.5,M,,*5E
$GNGLL,3510.3997,N,13653.9698,E,034215.00,A,D*7C
$GNGSA,A,3,07,06,05,11,195,20,196,09,,,,,2.2,1.5,1.7*22
$GPGSV,4,1,13,04,01,037,,05,29,274,27,06,57,096,41,07,20,098,30*7C
$GPGSV,4,2,13,09,34,046,27,11,67,342,35,12,04,259,06,13,18,199,17*75
$GPGSV,4,3,13,17,07,164,23,19,27,173,32,20,52,300,27,29,07,323,17*7D
$GPGSV,4,4,13,30,16,132,19,,,,,,,,,,,,*47
$GQGSV,2,1,05,02,13,186,23,03,82,156,42,04,75,196,38,07,47,196,33*74
$GQGSV,2,2,05,57,,,44,,,,,,,,,,,,*7F
$GNRMC,034215.00,A,3510.3997,N,13653.9698,E,10.8,90.1,180724,8.1,W,D*32
$GNVTG,90.1,T,98.2,M,10.8,N,20.0,K,D*38
$GNZDA,034215.00,18,07,2024,,*73
$L1BAT,4.108*25
$L1MAG,0.00,0.00,1015,1015*36
$GPGGA,034216.00,3510.3998,N,13653.9745,E,2,08,1.5,16.6,M,35.5,M,,*52
$GNGLL,3510.3998,N,13653.9745,E,034216.00,A,D*71
$GNGSA,A,3,07,06,05,11,195,20,196,09,,,,,2.2,1.5,1.7*22
$GPGSV,4,1,13,04,01,037,,05,29,274,25,06,57,096,44,07,20,098,27*7D
$GPGSV,4,2,13,09,34,046,24,11,67,342,21,12,04,259,,13,18,199,13*71
$GPGSV,4,3,13,17,07,164,19,19,27,173,31,20,52,300,29,29,07,323,17*79
$GPGSV,4,4,13,30,16,132,19,,,,,,,,,,,,*47
$GQGSV,2,1,05,02,13,186,23,03,82,156,42,04,75,196,38,07,47,196,34*73
$GQGSV,2,2,05,57,,,46,,,,,,,,,,,,*7D
$GNRMC,034216.00,A,3510.3998,N,13653.9745,E,10.7,88.2,180724,8.1,W,D*3A
$GNVTG,88.2,T,96.3,M,10.7,N,19.9,K,D*31
$GNZDA,034216.00,18,07,2024,,*70
$L1BAT,4.108*25
$L1MAG,0.00,0.00,1024,1024*36
$GPGGA,034217.05,3510.3995,N,13653.9784,E,2,08,1.5,16.7,M,35.5,M,,*57
$GNGLL,3510.3995,N,13653.9784,E,034217.05,A,D*75
$GNGSA,A,3,07,06,05,11,195,20,196,09,,,,,2.2,1.5,1.7*22
$GPGSV,4,1,13,04,01,037,,05,29,274,20,06,57,096,43,07,20,098,27*7F
$GPGSV,4,2,13,09,34,046,31,11,67,342,25,12,04,259,14,13,18,199,09*7F
$GPGSV,4,3,13,17,07,164,15,19,27,173,34,20,52,300,32,29,07,323,17*7A
$GPGSV,4,4,13,30,16,132,21,,,,,,,,,,,,*4C
$GQGSV,2,1,05,02,13,186,29,03,82,156,42,04,75,196,39,07,47,196,33*7F
$GQGSV,2,2,05,57,,,42,,,,,,,,,,,,*79
$GNRMC,034217.05,A,3510.3995,N,13653.9784,E,10.7,87.8,180724,8.1,W,D*3B
$GNVTG,87.8,T,95.9,M,10.7,N,19.8,K,D*3C
$GNZDA,034217.05,18,07,2024,,*74
$L1BAT,4.108*25
$L1MAG,0.00,0.00,1076,1076*36
$GPGGA,034218.01,3510.3997,N,13653.9824,E,2,08,1.5,17.3,M,35.5,M,,*5E
$GNGLL,3510.3997,N,13653.9824,E,034218.01,A,D*79
$GNGSA,A,3,07,06,05,11,195,20,196,09,,,,,2.2,1.5,1.7*22
$GPGSV,4,1,13,04,01,037,,05,29,274,22,06,57,096,43,07,20,098,28*72
$GPGSV,4,2,13,09,34,046,38,11,67,342,24,12,04,259,00,13,18,199,15*7F
$GPGSV,4,3,13,17,07,164,18,19,27,173,25,20,52,300,23,29,07,323,14*74
$GPGSV,4,4,13,30,16,132,23,,,,,,,,,,,,*4E
$GQGSV,2,1,05,02,13,186,25,03,82,156,42,04,75,196,41,07,47,196,32*7D
$GQGSV,2,2,05,57,,,42,,,,,,,,,,,,*79
$GNRMC,034218.01,A,3510.3997,N,13653.9824,E,10.7,87.5,180724,8.1,W,D*3A
$GNVTG,87.5,T,95.6,M,10.7,N,19.8,K,D*3E
$GNZDA,034218.01,18,07,2024,,*7F
$L1BAT,4.108*25
$L1MAG,0.00,0.00,1132,1132*36
$GPGGA,034219.00,3510.4002,N,13653.9853,E,2,08,1.5,17.8,M,35.5,M,,*57
$GNGLL,3510.4002,N,13653.9853,E,034219.00,A,D*7B
$GNGSA,A,3,07,06,05,11,195,20,196,09,,,,,2.2,1.5,1.7*22
$GPGSV,4,1,13,04,01,037,,05,29,274,24,06,57,096,43,07,20,098,30*7D
$GPGSV,4,2,13,09,34,046,38,11,67,342,26,12,04,259,07,13,18,199,16*79
$GPGSV,4,3,13,17,07,164,16,19,27,173,25,20,52,300,20,29,07,323,00*7C
$GPGSV,4,4,13,30,16,132,25,,,,,,,,,,,,*48
$GQGSV,2,1,05,02,13,186,25,03,82,156,41,04,75,196,39,07,47,196,34*77
$GQGSV,2,2,05,57,,,44,,,,,,,,,,,,*7F
$GNRMC,034219.00,A,3510.4002,N,13653.9853,E,10.6,86.4,180724,8.1,W,D*39
$GNVTG,86.4,T,94.5,M,10.6,N,19.7,K,D*32
$GNZDA,034219.00,18,07,2024,,*7F
$L1BAT,4.108*25
$L1MAG,0.00,0.00,1086,1086*36
$GPGGA,034220.00,3510.4003,N,13653.9889,E,2,08,1.5,18.2,M,35.5,M,,*5E
$GNGLL,3510.4003,N,13653.9889,E,034220.00,A,D*77
$GNGSA,A,3,07,06,05,11,195,20,196,09,,,,,2.2,1.5,1.7*22
$GPGSV,4,1,13,04,01,037,,05,29,274,24,06,57,096,43,07,20,098,31*7C
$GPGSV,4,2,13,09,34,046,32,11,67,342,40,12,04,259,04,13,18,199,00*77
$GPGSV,4,3,13,17,07,164,10,19,27,173,23,20,52,300,23,29,07,323,22*7F
$GPGSV,4,4,13,30,16,132,24,,,,,,,,,,,,*49
$GQGSV,2,1,05,02,13,186,23,03,82,156,43,04,75,196,39,07,47,196,34*73
$GQGSV,2,2,05,57,,,42,,,,,,,,,,,,*79
$GNRMC,034220.00,A,3510.4003,N,13653.9889,E,10.6,86.8,180724,8.1,W,D*39
$GNVTG,86.8,T,94.9,M,10.6,N,19.6,K,D*33
$GNZDA,034220.00,18,07,2024,,*75
$L1BAT,4.108*25
$L1MAG,0.00,0.00,1054,1054*36
$GPGGA,034221.00,3510.4003,N,13653.9931,E,2,08,1.5,18.3,M,35.5,M,,*5C
$GNGLL,3510.4003,N,13653.9931,E,034221.00,A,D*74
$GNGSA,A,3,07,06,05,11,195,20,196,09,,,,,2.2,1.5,1.7*22
$GPGSV,4,1,13,04,01,037,,05,29,274,23,06,57,096,42,07,20,098,34*7F
$GPGSV,4,2,13,09,34,046,32,11,67,342,31,12,04,259,,13,18,199,16*72
$GPGSV,4,3,13,17,07,164,18,19,27,173,25,20,52,300,23,29,07,323,07*76
$GPGSV,4,4,13,30,16,132,25,,,,,,,,,,,,*48
$GQGSV,2,1,05,02,13,186,22,03,82,156,39,04,75,196,38,07,47,196,34*7E
$GQGSV,2,2,05,57,,,40,,,,,,,,,,,,*7B
$GNRMC,034221.00,A,3510.4003,N,13653.9931,E,10.6,87.8,180724,8.1,W,D*3B
$GNVTG,87.8,T,95.9,M,10.6,N,19.6,K,D*33
$GNZDA,034221.00,18,07,2024,,*74
$L1BAT,4.108*25
$L1MAG,0.00,0.00,1068,1068*36
$GPGGA,034222.00,3510.4006,N,13653.9965,E,2,08,1.5,18.4,M,35.5,M,,*5C
$GNGLL,3510.4006,N,13653.9965,E,034222.00,A,D*73
$GNGSA,A,3,07,06,05,11,195,20,196,09,,,,,2.2,1.5,1.7*22
$GPGSV,4,1,13,04,01,037,,05,29,274,21,06,57,096,42,07,20,098,33*7A
$GPGSV,4,2,13,09,34,046,25,11,67,342,45,12,04,259,,13,18,199,14*75
$GPGSV,4,3,13,17,07,164,12,19,27,173,18,20,52,301,24,29,07,323,13*71
$GPGSV,4,4,13,30,16,132,25,,,,,,,,,,,,*48
$GQGSV,2,1,05,02,13,186,24,03,82,156,43,04,75,196,39,07,47,196,34*74
$GQGSV,2,2,05,57,,,46,,,,,,,,,,,,*7D
$GNRMC,034222.00,A,3510.4006,N,13653.9965,E,10.6,86.9,180724,8.1,W,D*3C
$GNVTG,86.9,T,95.0,M,10.6,N,19.6,K,D*3A
$GNZDA,034222.00,18,07,2024,,*77
$L1BAT,4.108*25
$L1MAG,0.00,0.00,1036,1036*36
$GPGGA,034223.00,3510.4009,N,13653.9999,E,2,08,1.5,18.1,M,35.5,M,,*54
$GNGLL,3510.4009,N,13653.9999,E,034223.00,A,D*7E
$GNGSA,A,3,07,06,05,11,195,20,196,09,,,,,2.2,1.5,1.7*22
$GPGSV,4,1,13,04,01,037,,05,29,274,24,06,57,096,42,07,20,098,31*7D
$GPGSV,4,2,13,09,34,046,25,11,67,342,44,12,04,259,,13,18,199,16*76
$GPGSV,4,3,13,17,07,164,12,19,27,173,17,20,52,301,29,29,07,323,12*72
$GPGSV,4,4,13,30,16,132,24,,,,,,,,,,,,*49
$GQGSV,2,1,05,02,13,186,20,03,82,156,41,04,75,196,38,07,47,196,34*73
$GQGSV,2,2,05,57,,,44,,,,,,,,,,,,*7F
$GNRMC,034223.00,A,3510.4009,N,13653.9999,E,10.6,86.3,180724,8.1,W,D*3B
$GNVTG,86.3,T,94.4,M,10.6,N,19.6,K,D*35
$GNZDA,034223.00,18,07,2024,,*76
$L1BAT,4.108*25
$L1MAG,0.00,0.00,1028,1028*36
$GPGGA,034224.00,3510.4011,N,13654.0035,E,2,08,1.5,17.9,M,35.5,M,,*5C
$GNGLL,3510.4011,N,13654.0035,E,034224.00,A,D*71
$GNGSA,A,3,07,06,05,11,195,20,196,09,,,,,2.2,1.5,1.7*22
$GPGSV,4,1,13,04,01,037,,05,29,274,24,06,57,096,43,07,20,098,33*7E
$GPGSV,4,2,13,09,34,046,26,11,67,342,46,12,04,259,,13,18,199,18*79
$GPGSV,4,3,13,17,07,164,15,19,27,173,19,20,52,301,39,29,07,323,00*79
$GPGSV,4,4,13,30,16,132,25,,,,,,,,,,,,*48
$GQGSV,2,1,05,02,13,186,21,03,82,156,43,04,75,196,39,07,47,196,26*72
$GQGSV,2,2,05,57,,,44,,,,,,,,,,,,*7F
$GNRMC,034224.00,A,3510.4011,N,13654.0035,E,10.6,85.7,180724,8.1,W,D*33
$GNVTG,85.7,T,93.8,M,10.6,N,19.6,K,D*39
$GNZDA,034224.00,18,07,2024,,*71
$L1BAT,4.108*25
$L1MAG,0.00,0.00,1101,1101*36
$GPGGA,034225.00,3510.4012,N,13654.0062,E,2,08,1.5,17.5,M,35.5,M,,*50
$GNGLL,3510.4012,N,13654.0062,E,034225.00,A,D*71
$GNGSA,A,3,07,06,05,11,195,20,196,09,,,,,2.2,1.5,1.7*22
$GPGSV,4,1,13,04,01,037,,05,29,274,24,06,57,096,43,07,20,098,36*7B
$GPGSV,4,2,13,09,34,046,27,11,67,342,45,12,04,259,,13,18,199,18*7B
$GPGSV,4,3,13,17,07,164,13,19,27,173,22,20,52,301,39,29,07,323,00*77
$GPGSV,4,4,13,30,16,132,28,,,,,,,,,,,,*45
$GQGSV,2,1,05,02,13,186,21,03,82,156,42,04,75,196,39,07,47,196,19*7F
$GQGSV,2,2,05,57,,,44,,,,,,,,,,,,*7F
$GNRMC,034225.00,A,3510.4012,N,13654.0062,E,10.6,85.8,180724,8.1,W,D*3C
$GNVTG,85.8,T,94.0,M,10.6,N,19.6,K,D*39
$GNZDA,034225.00,18,07,2024,,*70
$L1BAT,4.108*25
$L1MAG,0.00,0.00,1188,1188*36
$GPGGA,034226.01,3510.4013,N,13654.0100,E,2,08,1.5,17.2,M,35.5,M,,*51
$GNGLL,3510.4013,N,13654.0100,E,034226.01,A,D*77
$GNGSA,A,3,07,06,05,11,195,20,196,09,,,,,2.2,1.5,1.7*22
$GPGSV,4,1,13,04,01,037,,05,29,274,22,06,57,096,44,07,20,098,40*7B
$GPGSV,4,2,13,09,34,046,30,11,67,342,44,12,04,259,,13,18,199,25*72
$GPGSV,4,3,13,17,07,164,11,19,27,173,32,20,52,301,39,29,07,323,00*74
$GPGSV,4,4,13,30,16,132,23,,,,,,,,,,,,*4E
$GQGSV,2,1,05,02,13,186,19,03,82,156,41,04,75,196,38,07,47,196,22*7E
$GQGSV,2,2,05,57,,,42,,,,,,,,,,,,*79
$GNRMC,034226.01,A,3510.4013,N,13654.0100,E,10.0,86.0,180724,8.1,W,D*37
$GNVTG,86.0,T,94.1,M,10.0,N,18.6,K,D*34
$GNZDA,034226.01,18,07,2024,,*72
$L1BAT,4.108*25
$L1MAG,0.00,0.00,1164,1164*36
$GPGGA,034227.00,3510.4016,N,13654.0128,E,2,08,1.5,17.0,M,35.5,M,,*5C
$GNGLL,3510.4016,N,13654.0128,E,034227.00,A,D*78
$GNGSA,A,3,07,06,05,11,195,20,196,09,,,,,2.2,1.5,1.7*22
$GPGSV,4,1,13,04,01,037,,05,29,274,23,06,57,096,44,07,20,098,38*75
$GPGSV,4,2,13,09,34,046,30,11,67,342,45,12,04,259,,13,18,199,27*71
$GPGSV,4,3,13,17,07,164,09,19,27,173,34,20,52,301,38,29,07,323,00*7A
$GPGSV,4,4,13,30,16,132,22,,,,,,,,,,,,*4F
$GQGSV,2,1,05,02,13,186,12,03,82,156,41,04,75,196,38,07,47,196,25*72
$GQGSV,2,2,05,57,,,42,,,,,,,,,,,,*79
$GNRMC,034227.00,A,3510.4016,N,13654.0128,E,8.5,86.1,180724,8.1,W,D*05
$GNVTG,86.1,T,94.2,M,8.5,N,15.8,K,D*09
$GNZDA,034227.00,18,07,2024,,*72
$L1BAT,4.108*25
$L1MAG,0.00,0.00,1139,1139*36
$GPGGA,034228.00,3510.4016,N,13654.0146,E,2,08,1.5,16.7,M,35.5,M,,*5D
$GNGLL,3510.4016,N,13654.0146,E,034228.00,A,D*7F
$GNGSA,A,3,07,06,05,11,195,20,196,09,,,,,2.2,1.5,1.7*22
$GPGSV,4,1,13,04,01,037,,05,29,274,25,06,57,096,44,07,20,098,36*7D
$GPGSV,4,2,13,09,34,046,29,11,67,342,46,12,04,259,,13,18,199,27*7A
$GPGSV,4,3,13,17,07,164,16,19,27,173,33,20,52,301,39,29,07,323,00*72
$GPGSV,4,4,13,30,16,132,18,,,,,,,,,,,,*46
$GQGSV,2,1,05,02,13,186,17,03,82,156,41,04,75,196,38,07,47,196,29*7B
